[{"city":"Beijing","cn":"北京市","results":[{"address_components":[{"long_name":"Beijing","short_name":"Beijing","types":["locality","political"]},{"long_name":"Beijing","short_name":"Beijing","types":["administrative_area_level_1","political"]},{"long_name":"China","short_name":"CN","types":["country","political"]}],"formatted_address":"Beijing, Beijing, China","geometry":{"bounds":{"northeast":{"lat":41.0608158,"lng":117.5146251},"southwest":{"lat":39.4427581,"lng":115.4234115}},"location":{"lat":39.904211,"lng":116.407395},"location_type":"APPROXIMATE","viewport":{"northeast":{"lat":40.2164962,"lng":116.7829835},"southwest":{"lat":39.6612714,"lng":116.0119343}}},"place_id":"ChIJuSwU55ZS8DURiqkPryBWYrk","types":["locality","political"]}],"id":100000},{"city":"Chongqing","cn":"重庆市","results":[{"address_components":[{"long_name":"Chongqing","short_name":"Chongqing","types":["locality","political"]},{"long_name":"Chongqing","short_name":"Chongqing","types":["administrative_area_level_1","political"]},{"long_name":"China","short_name":"CN","types":["country","political"]}],"formatted_address":"Chongqing, Chongqing, China","geometry":{"bounds":{"northeast":{"lat":32.2011871,"lng":110.1998582},"southwest":{"lat":28.1602253,"lng":105.2897606}},"location":{"lat":29.56301,"lng":106.551557},"location_type":"APPROXIMATE","viewport":{"northeast":{"lat":29.7401968,"lng":106.8138242},"southwest":{"lat":29.3696283,"lng":106.2832832}}},"place_id":"ChIJQ0_m87o0kzYRIbOI3BaGn94","types":["locality","political"]}],"id":100001},{"city":"Tianjin","cn":"天津市","results":[{"address_components":[{"long_name":"Tianjin","short_name":"Tianjin","types":["locality","political"]},{"long_name":"Tianjin","short_name":"Tianjin","types":["administrative_area_level_1","political"]},{"long_name":"China","short_name":"CN","types":["country","political"]}],"formatted_address":"Tianjin, Tianjin, China","geometry":{"bounds":{"northeast":{"lat":40.2532141,"lng":118.0656116},"southwest":{"lat":38.5555781,"lng":116.7080286}},"location":{"lat":39.084158,"lng":117.200983},"location_type":"APPROXIMATE","viewport":{"northeast":{"lat":39.4468325,"lng":117.8118896},"southwest":{"lat":38.8032309,"lng":116.7791748}}},"place_id":"ChIJhw4sHmL87TURMUCIMLeUcYQ","types":["locality","political"]}],"id":100003},{"city":"Shanghai","cn":"上海市","results":[{"address_components":[{"long_name":"Shanghai","short_name":"Shanghai","types":["locality","political"]},{"long_name":"Shanghai","short_name":"Shanghai","types":["administrative_area_level_1","political"]},{"long_name":"China","short_name":"CN","types":["country","political"]}],"formatted_address":"Shanghai, Shanghai, China","geometry":{"bounds":{"northeast":{"lat":31.868217,"lng":122.2470663},"southwest":{"lat":30.68027,"lng":120.8582174}},"location":{"lat":31.230416,"lng":121.473701},"location_type":"APPROXIMATE","viewport":{"northeast":{"lat":31.6688967,"lng":122.1137989},"southwest":{"lat":30.7798012,"lng":120.8397067}}},"place_id":"ChIJMzz1sUBwsjURoWTDI5QSlQI","types":["locality","political"]}],"id":100002},{"city":"Hong Kong","cn":"香港特别行政区","results":[{"address_components":[{"long_name":"Hong Kong","short_name":"HK","types":["country","political"]}],"formatted_address":"Hong Kong","geometry":{"bounds":{"northeast":{"lat":22.561968,"lng":114.4069561},"southwest":{"lat":22.1533884,"lng":113.835078}},"location":{"lat":22.396428,"lng":114.109497},"location_type":"APPROXIMATE","viewport":{"northeast":{"lat":22.561968,"lng":114.4069561},"southwest":{"lat":22.1533884,"lng":113.835079}}},"place_id":"ChIJD5gyo-3iAzQRfMnq27qzivA","types":["country","political"]}],"id":100004},{"city":"Anqing","cn":"安庆市","results":[{"address_components":[{"long_name":"Anqing","short_name":"Anqing","types":["locality","political"]},{"long_name":"Anhui","short_name":"Anhui","types":["administrative_area_level_1","political"]},{"long_name":"China","short_name":"CN","types":["country","political"]}],"formatted_address":"Anqing, Anhui, China","geometry":{"bounds":{"northeast":{"lat":31.2684596,"lng":117.7410156},"southwest":{"lat":29.7881572,"lng":115.7623244}},"location":{"lat":30.543494,"lng":117.063755},"location_type":"APPROXIMATE","viewport":{"northeast":{"lat":30.6153366,"lng":117.1588898},"southwest":{"lat":30.457416,"lng":116.9446564}}},"place_id":"ChIJOVs0Sz-MMzQR21hOTw9IF3M","types":["locality","political"]}],"id":100006},{"city":"Macau","cn":"澳门特别行政区","results":[{"address_components":[{"long_name":"Macau","short_name":"MO","types":["country","political"]}],"formatted_address":"Macau","geometry":{"bounds":{"northeast":{"lat":22.2170639,"lng":113.5981886},"southwest":{"lat":22.1097694,"lng":113.5276053}},"location":{"lat":22.198745,"lng":113.543873},"location_type":"APPROXIMATE","viewport":{"northeast":{"lat":22.2170639,"lng":113.5981886},"southwest":{"lat":22.1097694,"lng":113.5276053}}},"place_id":"ChIJ88g14uB6ATQR9qyFtCzje8Y","types":["country","political"]}],"id":100005},{"city":"Bengbu","cn":"蚌埠市","results":[{"address_components":[{"long_name":"Bengbu","short_name":"Bengbu","types":["locality","political"]},{"long_name":"Anhui","short_name":"Anhui","types":["administrative_area_level_1","political"]},{"long_name":"China","short_name":"CN","types":["country","political"]}],"formatted_address":"Bengbu, Anhui, China","geometry":{"bounds":{"northeast":{"lat":33.5015535,"lng":118.0749043},"southwest":{"lat":32.7161669,"lng":116.7356685}},"location":{"lat":32.916287,"lng":117.389719},"location_type":"APPROXIMATE","viewport":{"northeast":{"lat":33.0696516,"lng":117.5014615},"southwest":{"lat":32.8240398,"lng":117.2156668}}},"place_id":"ChIJbaBY1Pg4yTURRJNVUZYV3Rk","types":["locality","political"]}],"id":100007},{"city":"Bozhou","cn":"亳州市","results":[{"address_components":[{"long_name":"Bozhou","short_name":"Bozhou","types":["locality","political"]},{"long_name":"Anhui","short_name":"Anhui","types":["administrative_area_level_1","political"]},{"long_name":"China","short_name":"CN","types":["country","political"]}],"formatted_address":"Bozhou, Anhui, China","geometry":{"bounds":{"northeast":{"lat":34.0768326,"lng":116.8281868},"southwest":{"lat":32.8581794,"lng":115.5458523}},"location":{"lat":33.844582,"lng":115.778676},"location_type":"APPROXIMATE","viewport":{"northeast":{"lat":33.9460745,"lng":115.8920288},"southwest":{"lat":33.7909932,"lng":115.6647491}}},"place_id":"ChIJe97G7fZEzjURSkB0O64EPJg","types":["locality","political"]}],"id":100008},{"city":"Chaohu","cn":"巢湖市","results":[{"address_components":[{"long_name":"Chaohu","short_name":"Chaohu","types":["sublocality_level_1","sublocality","political"]},{"long_name":"Hefei","short_name":"Hefei","types":["locality","political"]},{"long_name":"Anhui","short_name":"Anhui","types":["administrative_area_level_1","political"]},{"long_name":"China","short_name":"CN","types":["country","political"]}],"formatted_address":"Chaohu, Hefei, Anhui, China","geometry":{"bounds":{"northeast":{"lat":32.0022601,"lng":117.9660387},"southwest":{"lat":31.2710377,"lng":117.4360858}},"location":{"lat":31.598628,"lng":117.8618},"location_type":"APPROXIMATE","viewport":{"northeast":{"lat":32.0022601,"lng":117.9660387},"southwest":{"lat":31.2710377,"lng":117.4360858}}},"place_id":"ChIJi_NRTbghyzURyOuulT2DLcY","types":["sublocality_level_1","sublocality","political"]}],"id":100009},{"city":"Chizhou","cn":"池州市","results":[{"address_components":[{"long_name":"Chizhou","short_name":"Chizhou","types":["locality","political"]},{"long_name":"Anhui","short_name":"Anhui","types":["administrative_area_level_1","political"]},{"long_name":"China","short_name":"CN","types":["country","political"]}],"formatted_address":"Chizhou, Anhui, China","geometry":{"bounds":{"northeast":{"lat":30.8437891,"lng":118.1271224},"southwest":{"lat":29.5647224,"lng":116.6510242}},"location":{"lat":30.6648,"lng":117.491568},"location_type":"APPROXIMATE","viewport":{"northeast":{"lat":30.701549,"lng":117.5350749},"southwest":{"lat":30.6165026,"lng":117.4434185}}},"place_id":"ChIJ4_iTuJkaNDQRMDb4y_QQ3vs","types":["locality","political"]}],"id":100010},{"city":"Fuyang","cn":"阜阳市","results":[{"address_components":[{"long_name":"Fuyang","short_name":"Fuyang","types":["locality","political"]},{"long_name":"Anhui","short_name":"Anhui","types":["administrative_area_level_1","political"]},{"long_name":"China","short_name":"CN","types":["country","political"]}],"formatted_address":"Fuyang, Anhui, China","geometry":{"bounds":{"northeast":{"lat":33.5851185,"lng":116.6351007},"southwest":{"lat":32.4029964,"lng":114.8827517}},"location":{"lat":32.890124,"lng":115.814205},"location_type":"APPROXIMATE","viewport":{"northeast":{"lat":33.0276823,"lng":116.0224915},"southwest":{"lat":32.7785784,"lng":115.6626892}}},"place_id":"ChIJXxPjqVLwzTUR_yfYczb28xc","types":["locality","political"]}],"id":100012},{"city":"Chuzhou","cn":"滁州市","results":[{"address_components":[{"long_name":"Xuzhou","short_name":"Xuzhou","types":["locality","political"]},{"long_name":"Jiangsu","short_name":"Jiangsu","types":["administrative_area_level_1","political"]},{"long_name":"China","short_name":"CN","types":["country","political"]}],"formatted_address":"Xuzhou, Jiangsu, China","geometry":{"bounds":{"northeast":{"lat":34.9750877,"lng":118.674072},"southwest":{"lat":33.7107855,"lng":116.3619604}},"location":{"lat":34.205768,"lng":117.284124},"location_type":"APPROXIMATE","viewport":{"northeast":{"lat":34.4362835,"lng":117.4625587},"southwest":{"lat":34.0799623,"lng":116.9486797}}},"place_id":"ChIJeS9jrwkVxjURgPh-QZarHZw","types":["locality","political"]},{"address_components":[{"long_name":"Chuzhou","short_name":"Chuzhou","types":["locality","political"]},{"long_name":"Anhui","short_name":"Anhui","types":["administrative_area_level_1","political"]},{"long_name":"China","short_name":"CN","types":["country","political"]}],"formatted_address":"Chuzhou, Anhui, China","geometry":{"bounds":{"northeast":{"lat":33.2179604,"lng":119.2309975},"southwest":{"lat":31.8509259,"lng":117.1609424}},"location":{"lat":32.25342500000001,"lng":118.328322},"location_type":"APPROXIMATE","viewport":{"northeast":{"lat":32.412103,"lng":118.4471762},"southwest":{"lat":32.2005185,"lng":118.1738269}}},"place_id":"ChIJheVy6ioWyjUReF9_L2qJBHQ","types":["locality","political"]},{"address_components":[{"long_name":"Huai'an","short_name":"Huai'an","types":["sublocality_level_1","sublocality","political"]},{"long_name":"Huai'an","short_name":"Huai'an","types":["locality","political"]},{"long_name":"Jiangsu","short_name":"Jiangsu","types":["administrative_area_level_1","political"]},{"long_name":"China","short_name":"CN","types":["country","political"]}],"formatted_address":"Huai'an, Huai'an, Jiangsu, China","geometry":{"bounds":{"northeast":{"lat":33.7602131,"lng":119.6200005},"southwest":{"lat":33.2834615,"lng":118.9981797}},"location":{"lat":33.502869,"lng":119.141099},"location_type":"APPROXIMATE","viewport":{"northeast":{"lat":33.7602131,"lng":119.6200005},"southwest":{"lat":33.2834615,"lng":118.9981797}}},"place_id":"ChIJp3KbOLuGtzURcIdIsqxLu-4","types":["sublocality_level_1","sublocality","political"]}],"id":100011},{"city":"Hefei","cn":"合肥市","results":[{"address_components":[{"long_name":"Hefei","short_name":"Hefei","types":["locality","political"]},{"long_name":"Anhui","short_name":"Anhui","types":["administrative_area_level_1","political"]},{"long_name":"China","short_name":"CN","types":["country","political"]}],"formatted_address":"Hefei, Anhui, China","geometry":{"bounds":{"northeast":{"lat":32.5366426,"lng":117.9660387},"southwest":{"lat":30.9509903,"lng":116.6874752}},"location":{"lat":31.820587,"lng":117.227239},"location_type":"APPROXIMATE","viewport":{"northeast":{"lat":31.9945999,"lng":117.4541473},"southwest":{"lat":31.7164494,"lng":117.1183777}}},"place_id":"ChIJnc8H8g5kyzURmTLD8nMRFdw","types":["locality","political"]}],"id":100013},{"city":"Huaibei","cn":"淮北市","results":[{"address_components":[{"long_name":"Huaibei","short_name":"Huaibei","types":["locality","political"]},{"long_name":"Anhui","short_name":"Anhui","types":["administrative_area_level_1","political"]},{"long_name":"China","short_name":"CN","types":["country","political"]}],"formatted_address":"Huaibei, Anhui, China","geometry":{"bounds":{"northeast":{"lat":34.2487102,"lng":117.0511144},"southwest":{"lat":33.28153,"lng":116.3936995}},"location":{"lat":33.955845,"lng":116.798265},"location_type":"APPROXIMATE","viewport":{"northeast":{"lat":34.0627984,"lng":116.93367},"southwest":{"lat":33.8344013,"lng":116.6452789}}},"place_id":"ChIJ26KX4RgXzzURvCADYYtRxSY","types":["locality","political"]}],"id":100014},{"city":"Huainan","cn":"淮南市","results":[{"address_components":[{"long_name":"Huainan","short_name":"Huainan","types":["locality","political"]},{"long_name":"Anhui","short_name":"Anhui","types":["administrative_area_level_1","political"]},{"long_name":"China","short_name":"CN","types":["country","political"]}],"formatted_address":"Huainan, Anhui, China","geometry":{"bounds":{"northeast":{"lat":33.0047782,"lng":117.2152807},"southwest":{"lat":32.3845784,"lng":116.3648731}},"location":{"lat":32.625478,"lng":116.999933},"location_type":"APPROXIMATE","viewport":{"northeast":{"lat":32.7333571,"lng":117.1760023},"southwest":{"lat":32.5614631,"lng":116.8930721}}},"place_id":"ChIJB641AFIOzDURudDpwHLXFhY","types":["locality","political"]}],"id":100015},{"city":"Huangshan","cn":"黄山市","results":[{"address_components":[{"long_name":"Huangshan","short_name":"Huangshan","types":["locality","political"]},{"long_name":"Anhui","short_name":"Anhui","types":["administrative_area_level_1","political"]},{"long_name":"China","short_name":"CN","types":["country","political"]}],"formatted_address":"Huangshan, Anhui, China","geometry":{"bounds":{"northeast":{"lat":30.5172883,"lng":118.9025778},"southwest":{"lat":29.3930379,"lng":117.2030248}},"location":{"lat":29.714748,"lng":118.337621},"location_type":"APPROXIMATE","viewport":{"northeast":{"lat":29.7879469,"lng":118.4425628},"southwest":{"lat":29.6333451,"lng":118.1882787}}},"place_id":"ChIJyxxIIzbENTQRSXVRMSA_MU8","types":["locality","political"]},{"address_components":[{"long_name":"Huangshan","short_name":"Huangshan","types":["sublocality_level_1","sublocality","political"]},{"long_name":"Huangshan","short_name":"Huangshan","types":["locality","political"]},{"long_name":"Anhui","short_name":"Anhui","types":["administrative_area_level_1","political"]},{"long_name":"China","short_name":"CN","types":["country","political"]}],"formatted_address":"Huangshan, Huangshan, Anhui, China","geometry":{"bounds":{"northeast":{"lat":30.5172883,"lng":118.3574038},"southwest":{"lat":29.9953421,"lng":117.8241339}},"location":{"lat":30.272942,"lng":118.141568},"location_type":"APPROXIMATE","viewport":{"northeast":{"lat":30.5172883,"lng":118.3574038},"southwest":{"lat":29.9953421,"lng":117.8241339}}},"place_id":"ChIJ7zsO2L25NTQRXq7L7YX41EA","types":["sublocality_level_1","sublocality","political"]}],"id":100016},{"city":"Jieshou","cn":"界首市","results":[{"address_components":[{"long_name":"Jieshou","short_name":"Jieshou","types":["sublocality_level_1","sublocality","political"]},{"long_name":"Fuyang","short_name":"Fuyang","types":["locality","political"]},{"long_name":"Anhui","short_name":"Anhui","types":["administrative_area_level_1","political"]},{"long_name":"China","short_name":"CN","types":["country","political"]}],"formatted_address":"Jieshou, Fuyang, Anhui, China","geometry":{"bounds":{"northeast":{"lat":33.523455,"lng":115.5304884},"southwest":{"lat":33.0045219,"lng":115.247132}},"location":{"lat":33.257013,"lng":115.374564},"location_type":"APPROXIMATE","viewport":{"northeast":{"lat":33.523455,"lng":115.5304884},"southwest":{"lat":33.0045219,"lng":115.247132}}},"place_id":"ChIJvy--7ib00TURxNnpgc8DSfM","types":["sublocality_level_1","sublocality","political"]}],"id":100017},{"city":"Ma'anshan","cn":"马鞍山市","results":[{"address_components":[{"long_name":"Ma'anshan","short_name":"Ma'anshan","types":["locality","political"]},{"long_name":"Anhui","short_name":"Anhui","types":["administrative_area_level_1","political"]},{"long_name":"China","short_name":"CN","types":["country","political"]}],"formatted_address":"Ma'anshan, Anhui, China","geometry":{"bounds":{"northeast":{"lat":32.05811,"lng":118.8840008},"southwest":{"lat":31.290669,"lng":117.9013658}},"location":{"lat":31.67045199999999,"lng":118.50676},"location_type":"APPROXIMATE","viewport":{"northeast":{"lat":31.8092286,"lng":118.6681366},"southwest":{"lat":31.53168789999999,"lng":118.3467865}}},"place_id":"ChIJ7_MKE5uFyjURt9BJf6UfKBQ","types":["locality","political"]}],"id":100019},{"city":"Lu'an","cn":"六安市","results":[{"address_components":[{"long_name":"Lu'an","short_name":"Lu'an","types":["locality","political"]},{"long_name":"Anhui","short_name":"Anhui","types":["administrative_area_level_1","political"]},{"long_name":"China","short_name":"CN","types":["country","political"]}],"formatted_address":"Lu'an, Anhui, China","geometry":{"bounds":{"northeast":{"lat":32.6611195,"lng":117.2533416},"southwest":{"lat":31.0115273,"lng":115.3711538}},"location":{"lat":31.7337,"lng":116.521855},"location_type":"APPROXIMATE","viewport":{"northeast":{"lat":31.8921837,"lng":116.751709},"southwest":{"lat":31.5721698,"lng":116.265564}}},"place_id":"ChIJ2Y5pShjXzDURGGW3CsU_n0g","types":["locality","political"]}],"id":100018},{"city":"Suzhou","cn":"宿州市","results":[{"address_components":[{"long_name":"Suzhou","short_name":"Suzhou","types":["locality","political"]},{"long_name":"Jiangsu","short_name":"Jiangsu","types":["administrative_area_level_1","political"]},{"long_name":"China","short_name":"CN","types":["country","political"]}],"formatted_address":"Suzhou, Jiangsu, China","geometry":{"bounds":{"northeast":{"lat":32.0294592,"lng":121.3364988},"southwest":{"lat":30.7578406,"lng":119.9894592}},"location":{"lat":31.298974,"lng":120.585297},"location_type":"APPROXIMATE","viewport":{"northeast":{"lat":31.5230825,"lng":120.9141541},"southwest":{"lat":31.1336138,"lng":120.3744507}}},"place_id":"ChIJB17Sm9GgszURBGB2vYV_5SE","types":["locality","political"]},{"address_components":[{"long_name":"Suzhou","short_name":"Suzhou","types":["locality","political"]},{"long_name":"Anhui","short_name":"Anhui","types":["administrative_area_level_1","political"]},{"long_name":"China","short_name":"CN","types":["country","political"]}],"formatted_address":"Suzhou, Anhui, China","geometry":{"bounds":{"northeast":{"lat":34.6542338,"lng":118.1860296},"southwest":{"lat":33.2750818,"lng":116.1620491}},"location":{"lat":33.646357,"lng":116.964358},"location_type":"APPROXIMATE","viewport":{"northeast":{"lat":33.7431519,"lng":117.1568298},"southwest":{"lat":33.5293186,"lng":116.82724}}},"place_id":"ChIJae_7p6xSzzUR2MC8puL5jEA","types":["locality","political"]},{"address_components":[{"long_name":"Suzhou","short_name":"Suzhou","types":["sublocality_level_1","sublocality","political"]},{"long_name":"Jiuquan","short_name":"Jiuquan","types":["locality","political"]},{"long_name":"Gansu","short_name":"Gansu","types":["administrative_area_level_1","political"]},{"long_name":"China","short_name":"CN","types":["country","political"]}],"formatted_address":"Suzhou, Jiuquan, Gansu, China","geometry":{"bounds":{"northeast":{"lat":39.9852429,"lng":99.3080616},"southwest":{"lat":39.154321,"lng":98.3301369}},"location":{"lat":39.745071,"lng":98.50784999999999},"location_type":"APPROXIMATE","viewport":{"northeast":{"lat":39.9852429,"lng":99.3080616},"southwest":{"lat":39.154321,"lng":98.3301369}}},"place_id":"ChIJmRnDH94htjcRfjP_2WoNFcM","types":["sublocality_level_1","sublocality","political"]}],"id":100022},{"city":"Mingguang","cn":"明光市","results":[{"address_components":[{"long_name":"Mingguang","short_name":"Mingguang","types":["sublocality_level_1","sublocality","political"]},{"long_name":"Chuzhou","short_name":"Chuzhou","types":["locality","political"]},{"long_name":"Anhui","short_name":"Anhui","types":["administrative_area_level_1","political"]},{"long_name":"China","short_name":"CN","types":["country","political"]}],"formatted_address":"Mingguang, Chuzhou, Anhui, China","geometry":{"bounds":{"northeast":{"lat":33.2179604,"lng":118.4298876},"southwest":{"lat":32.4445531,"lng":117.8332075}},"location":{"lat":32.777056,"lng":117.989199},"location_type":"APPROXIMATE","viewport":{"northeast":{"lat":33.2179604,"lng":118.4298876},"southwest":{"lat":32.4445531,"lng":117.8332075}}},"place_id":"ChIJi39Yk86cyTURQFA6WnEJOak","types":["sublocality_level_1","sublocality","political"]}],"id":100020},{"city":"Ningguo","cn":"宁国市","results":[{"address_components":[{"long_name":"Ningguo","short_name":"Ningguo","types":["sublocality_level_1","sublocality","political"]},{"long_name":"Xuancheng","short_name":"Xuancheng","types":["locality","political"]},{"long_name":"Anhui","short_name":"Anhui","types":["administrative_area_level_1","political"]},{"long_name":"China","short_name":"CN","types":["country","political"]}],"formatted_address":"Ningguo, Xuancheng, Anhui, China","geometry":{"bounds":{"northeast":{"lat":30.7827486,"lng":119.40306},"southwest":{"lat":30.2828049,"lng":118.6183284}},"location":{"lat":30.633571,"lng":118.982915},"location_type":"APPROXIMATE","viewport":{"northeast":{"lat":30.7827486,"lng":119.40306},"southwest":{"lat":30.2828049,"lng":118.6183284}}},"place_id":"ChIJNfoeTUaUSjQRCSOuikRfGdI","types":["sublocality_level_1","sublocality","political"]}],"id":100021},{"city":"Tianchang","cn":"天长市","results":[{"address_components":[{"long_name":"Tianchang","short_name":"Tianchang","types":["sublocality_level_1","sublocality","political"]},{"long_name":"Chuzhou","short_name":"Chuzhou","types":["locality","political"]},{"long_name":"Anhui","short_name":"Anhui","types":["administrative_area_level_1","political"]},{"long_name":"China","short_name":"CN","types":["country","political"]}],"formatted_address":"Tianchang, Chuzhou, Anhui, China","geometry":{"bounds":{"northeast":{"lat":32.9607336,"lng":119.2309975},"southwest":{"lat":32.4525322,"lng":118.6610089}},"location":{"lat":32.667571,"lng":119.004817},"location_type":"APPROXIMATE","viewport":{"northeast":{"lat":32.9607336,"lng":119.2309975},"southwest":{"lat":32.4525322,"lng":118.6610089}}},"place_id":"ChIJcZJ4A3M-tjURVH7QuT89oYc","types":["sublocality_level_1","sublocality","political"]}],"id":100023},{"city":"Tongcheng","cn":"桐城市","results":[{"address_components":[{"long_name":"Tongcheng","short_name":"Tongcheng","types":["sublocality_level_1","sublocality","political"]},{"long_name":"Anqing","short_name":"Anqing","types":["locality","political"]},{"long_name":"Anhui","short_name":"Anhui","types":["administrative_area_level_1","political"]},{"long_name":"China","short_name":"CN","types":["country","political"]}],"formatted_address":"Tongcheng, Anqing, Anhui, China","geometry":{"bounds":{"northeast":{"lat":31.2684596,"lng":117.2413695},"southwest":{"lat":30.6797712,"lng":116.6861842}},"location":{"lat":31.0358,"lng":116.97412},"location_type":"APPROXIMATE","viewport":{"northeast":{"lat":31.2684596,"lng":117.2413695},"southwest":{"lat":30.6797712,"lng":116.6861842}}},"place_id":"ChIJB1ZWQqRlMzQRnkeq-N3k7eg","types":["sublocality_level_1","sublocality","political"]}],"id":100024},{"city":"Tongling","cn":"铜陵市","results":[{"address_components":[{"long_name":"Tongling","short_name":"Tongling","types":["locality","political"]},{"long_name":"Anhui","short_name":"Anhui","types":["administrative_area_level_1","political"]},{"long_name":"China","short_name":"CN","types":["country","political"]}],"formatted_address":"Tongling, Anhui, China","geometry":{"bounds":{"northeast":{"lat":31.13271409999999,"lng":118.1647841},"southwest":{"lat":30.4144798,"lng":116.919961}},"location":{"lat":30.945516,"lng":117.811267},"location_type":"APPROXIMATE","viewport":{"northeast":{"lat":31.0092573,"lng":117.940979},"southwest":{"lat":30.8667312,"lng":117.7047729}}},"place_id":"ChIJDQi5lcmSNDQRzGjLiDz_Cao","types":["locality","political"]}],"id":100025},{"city":"Wuhu","cn":"芜湖市","results":[{"address_components":[{"long_name":"Wuhu","short_name":"Wuhu","types":["locality","political"]},{"long_name":"Anhui","short_name":"Anhui","types":["administrative_area_level_1","political"]},{"long_name":"China","short_name":"CN","types":["country","political"]}],"formatted_address":"Wuhu, Anhui, China","geometry":{"bounds":{"northeast":{"lat":31.5382324,"lng":118.7335783},"southwest":{"lat":30.6408527,"lng":117.4825563}},"location":{"lat":31.352859,"lng":118.432941},"location_type":"APPROXIMATE","viewport":{"northeast":{"lat":31.491311,"lng":118.5466003},"southwest":{"lat":31.1657854,"lng":118.2417297}}},"place_id":"ChIJUasctHhJNTQRJiIKj03RaPE","types":["locality","political"]}],"id":100026},{"city":"Xuancheng","cn":"宣城市","results":[{"address_components":[{"long_name":"Xuancheng","short_name":"Xuancheng","types":["locality","political"]},{"long_name":"Anhui","short_name":"Anhui","types":["administrative_area_level_1","political"]},{"long_name":"China","short_name":"CN","types":["country","political"]}],"formatted_address":"Xuancheng, Anhui, China","geometry":{"bounds":{"northeast":{"lat":31.322676,"lng":119.6491442},"southwest":{"lat":29.9443075,"lng":117.9701116}},"location":{"lat":30.94069,"lng":118.758588},"location_type":"APPROXIMATE","viewport":{"northeast":{"lat":30.9964221,"lng":118.8566208},"southwest":{"lat":30.882167,"lng":118.6660767}}},"place_id":"ChIJA_rtW8ybSjQRPta0BQ_yaxc","types":["locality","political"]}],"id":100027},{"city":"Changle","cn":"长乐市","results":[{"address_components":[{"long_name":"Changle","short_name":"Changle","types":["sublocality_level_1","sublocality","political"]},{"long_name":"Fuzhou","short_name":"Fuzhou","types":["locality","political"]},{"long_name":"Fujian","short_name":"Fujian","types":["administrative_area_level_1","political"]},{"long_name":"China","short_name":"CN","types":["country","political"]}],"formatted_address":"Changle, Fuzhou, Fujian, China","geometry":{"bounds":{"northeast":{"lat":26.0743837,"lng":119.9976547},"southwest":{"lat":25.6675451,"lng":119.4027887}},"location":{"lat":25.962888,"lng":119.523266},"location_type":"APPROXIMATE","viewport":{"northeast":{"lat":26.0743837,"lng":119.72362},"southwest":{"lat":25.6675451,"lng":119.4027887}}},"place_id":"ChIJkYP1bdWwQTQR4myc4cSG4OU","types":["sublocality_level_1","sublocality","political"]}],"id":100028},{"city":"Fu'an","cn":"福安市","results":[{"address_components":[{"long_name":"Fu'an","short_name":"Fu'an","types":["sublocality_level_1","sublocality","political"]},{"long_name":"Ningde","short_name":"Ningde","types":["locality","political"]},{"long_name":"Fujian","short_name":"Fujian","types":["administrative_area_level_1","political"]},{"long_name":"China","short_name":"CN","types":["country","political"]}],"formatted_address":"Fu'an, Ningde, Fujian, China","geometry":{"bounds":{"northeast":{"lat":27.3976554,"lng":119.867617},"southwest":{"lat":26.683869,"lng":119.3913599}},"location":{"lat":27.088049,"lng":119.64777},"location_type":"APPROXIMATE","viewport":{"northeast":{"lat":27.3976554,"lng":119.867617},"southwest":{"lat":26.683869,"lng":119.3913599}}},"place_id":"ChIJI0eex1rDRjQRilSM_pIYjik","types":["sublocality_level_1","sublocality","political"]}],"id":100029},{"city":"Fuding","cn":"福鼎市","results":[{"address_components":[{"long_name":"Fuding","short_name":"Fuding","types":["sublocality_level_1","sublocality","political"]},{"long_name":"Ningde","short_name":"Ningde","types":["locality","political"]},{"long_name":"Fujian","short_name":"Fujian","types":["administrative_area_level_1","political"]},{"long_name":"China","short_name":"CN","types":["country","political"]}],"formatted_address":"Fuding, Ningde, Fujian, China","geometry":{"bounds":{"northeast":{"lat":27.4398793,"lng":120.7273219},"southwest":{"lat":26.9168739,"lng":119.9286056}},"location":{"lat":27.324479,"lng":120.216978},"location_type":"APPROXIMATE","viewport":{"northeast":{"lat":27.4398793,"lng":120.5136738},"southwest":{"lat":26.9168739,"lng":119.9286056}}},"place_id":"ChIJsSJtHEMoRDQRxURWyKV1U58","types":["sublocality_level_1","sublocality","political"]}],"id":100030},{"city":"Fuqing","cn":"福清市","results":[{"address_components":[{"long_name":"Fuqing","short_name":"Fuqing","types":["sublocality_level_1","sublocality","political"]},{"long_name":"Fuzhou","short_name":"Fuzhou","types":["locality","political"]},{"long_name":"Fujian","short_name":"Fujian","types":["administrative_area_level_1","political"]},{"long_name":"China","short_name":"CN","types":["country","political"]}],"formatted_address":"Fuqing, Fuzhou, Fujian, China","geometry":{"bounds":{"northeast":{"lat":25.8495711,"lng":119.6813234},"southwest":{"lat":25.3043909,"lng":119.067393}},"location":{"lat":25.720381,"lng":119.383811},"location_type":"APPROXIMATE","viewport":{"northeast":{"lat":25.8495711,"lng":119.6813234},"southwest":{"lat":25.3043909,"lng":119.067393}}},"place_id":"ChIJj2zxVYosQDQRZxmFwhwD3DU","types":["sublocality_level_1","sublocality","political"]}],"id":100031},{"city":"Fuzhou","cn":"福州市","results":[{"address_components":[{"long_name":"Fuzhou","short_name":"Fuzhou","types":["locality","political"]},{"long_name":"Fujian","short_name":"Fujian","types":["administrative_area_level_1","political"]},{"long_name":"China","short_name":"CN","types":["country","political"]}],"formatted_address":"Fuzhou, Fujian, China","geometry":{"bounds":{"northeast":{"lat":26.6343779,"lng":120.0908855},"southwest":{"lat":25.2501033,"lng":118.3820906}},"location":{"lat":26.074508,"lng":119.296494},"location_type":"APPROXIMATE","viewport":{"northeast":{"lat":26.1824709,"lng":119.5044708},"southwest":{"lat":25.9178492,"lng":119.132309}}},"place_id":"ChIJQZ8yJz5RQDQRiIspSgmF8m4","types":["locality","political"]},{"address_components":[{"long_name":"Fuzhou","short_name":"Fuzhou","types":["locality","political"]},{"long_name":"Jiangxi","short_name":"Jiangxi","types":["administrative_area_level_1","political"]},{"long_name":"China","short_name":"CN","types":["country","political"]}],"formatted_address":"Fuzhou, Jiangxi, China","geometry":{"bounds":{"northeast":{"lat":28.496885,"lng":117.3060903},"southwest":{"lat":26.4990571,"lng":115.591853}},"location":{"lat":27.949217,"lng":116.358182},"location_type":"APPROXIMATE","viewport":{"northeast":{"lat":28.0530264,"lng":116.4894855},"southwest":{"lat":27.8553358,"lng":116.2461662}}},"place_id":"ChIJsVYkjegIOzQRhOiiS4-A1eQ","types":["locality","political"]}],"id":100032},{"city":"Jian'ou","cn":"建瓯市","results":[],"id":100033},{"city":"Longhai","cn":"龙海市","results":[{"address_components":[{"long_name":"Longhai","short_name":"Longhai","types":["sublocality_level_1","sublocality","political"]},{"long_name":"Zhangzhou","short_name":"Zhangzhou","types":["locality","political"]},{"long_name":"Fujian","short_name":"Fujian","types":["administrative_area_level_1","political"]},{"long_name":"China","short_name":"CN","types":["country","political"]}],"formatted_address":"Longhai, Zhangzhou, Fujian, China","geometry":{"bounds":{"northeast":{"lat":24.5901588,"lng":118.2405304},"southwest":{"lat":24.1576576,"lng":117.4993553}},"location":{"lat":24.446706,"lng":117.818197},"location_type":"APPROXIMATE","viewport":{"northeast":{"lat":24.5901588,"lng":118.2405304},"southwest":{"lat":24.1576576,"lng":117.4993553}}},"place_id":"ChIJNaYx5UmHEzQRCvUuo0gGp14","types":["sublocality_level_1","sublocality","political"]}],"id":100035},{"city":"Jinjiang","cn":"晋江市","results":[{"address_components":[{"long_name":"Jinjiang","short_name":"Jinjiang","types":["sublocality_level_1","sublocality","political"]},{"long_name":"Quanzhou","short_name":"Quanzhou","types":["locality","political"]},{"long_name":"Fujian","short_name":"Fujian","types":["administrative_area_level_1","political"]},{"long_name":"China","short_name":"CN","types":["country","political"]}],"formatted_address":"Jinjiang, Quanzhou, Fujian, China","geometry":{"bounds":{"northeast":{"lat":24.9037498,"lng":118.7029655},"southwest":{"lat":24.5068004,"lng":118.411074}},"location":{"lat":24.781681,"lng":118.552365},"location_type":"APPROXIMATE","viewport":{"northeast":{"lat":24.9037498,"lng":118.7029655},"southwest":{"lat":24.5068004,"lng":118.411074}}},"place_id":"ChIJMXc5ZjXJFDQRWrRJ_Pr6HX8","types":["sublocality_level_1","sublocality","political"]},{"address_components":[{"long_name":"Jinjiang","short_name":"Jinjiang","types":["sublocality_level_1","sublocality","political"]},{"long_name":"Chengdu","short_name":"Chengdu","types":["locality","political"]},{"long_name":"Sichuan","short_name":"Sichuan","types":["administrative_area_level_1","political"]},{"long_name":"China","short_name":"CN","types":["country","political"]}],"formatted_address":"Jinjiang, Chengdu, Sichuan, China","geometry":{"bounds":{"northeast":{"lat":30.6700897,"lng":104.1716547},"southwest":{"lat":30.54644919999999,"lng":104.0599622}},"location":{"lat":30.657689,"lng":104.080989},"location_type":"APPROXIMATE","viewport":{"northeast":{"lat":30.6700897,"lng":104.1716547},"southwest":{"lat":30.54644919999999,"lng":104.0599622}}},"place_id":"ChIJL2I7627P7zYRUPIDSSR9fQg","types":["sublocality_level_1","sublocality","political"]}],"id":100034},{"city":"Longyan","cn":"龙岩市","results":[{"address_components":[{"long_name":"Longyan","short_name":"Longyan","types":["locality","political"]},{"long_name":"Fujian","short_name":"Fujian","types":["administrative_area_level_1","political"]},{"long_name":"China","short_name":"CN","types":["country","political"]}],"formatted_address":"Longyan, Fujian, China","geometry":{"bounds":{"northeast":{"lat":26.0330803,"lng":117.7490613},"southwest":{"lat":24.3698633,"lng":115.8522901}},"location":{"lat":25.075123,"lng":117.017537},"location_type":"APPROXIMATE","viewport":{"northeast":{"lat":25.1521846,"lng":117.1430969},"southwest":{"lat":24.9930058,"lng":116.9178772}}},"place_id":"ChIJf1gW2SeFFjQRa5YdNfK3hjA","types":["locality","political"]}],"id":100036},{"city":"Ningde","cn":"宁德市","results":[{"address_components":[{"long_name":"Ningde","short_name":"Ningde","types":["locality","political"]},{"long_name":"Fujian","short_name":"Fujian","types":["administrative_area_level_1","political"]},{"long_name":"China","short_name":"CN","types":["country","political"]}],"formatted_address":"Ningde, Fujian, China","geometry":{"bounds":{"northeast":{"lat":27.6753629,"lng":120.7270943},"southwest":{"lat":26.2753213,"lng":118.5484725}},"location":{"lat":26.665617,"lng":119.547933},"location_type":"APPROXIMATE","viewport":{"northeast":{"lat":26.6931458,"lng":119.5981979},"southwest":{"lat":26.6090627,"lng":119.4818115}}},"place_id":"ChIJbTy-eiIvQTQRMeIvG46QDs8","types":["locality","political"]}],"id":100039},{"city":"Nanping","cn":"南平市","results":[{"address_components":[{"long_name":"Nanping","short_name":"Nanping","types":["locality","political"]},{"long_name":"Fujian","short_name":"Fujian","types":["administrative_area_level_1","political"]},{"long_name":"China","short_name":"CN","types":["country","political"]}],"formatted_address":"Nanping, Fujian, China","geometry":{"bounds":{"northeast":{"lat":28.3129013,"lng":119.2753217},"southwest":{"lat":26.2434347,"lng":117.0034071}},"location":{"lat":26.641769,"lng":118.177708},"location_type":"APPROXIMATE","viewport":{"northeast":{"lat":26.7154394,"lng":118.2609558},"southwest":{"lat":26.5687482,"lng":118.0838013}}},"place_id":"ChIJNz-z6JXPODQRkjSrNe6nvrE","types":["locality","political"]},{"address_components":[{"long_name":"Nanping","short_name":"Nanping","types":["point_of_interest","establishment"]},{"long_name":"Nanping Shangquan","short_name":"Nanping Shangquan","types":["neighborhood","political"]},{"long_name":"Nan'an","short_name":"Nan'an","types":["sublocality_level_1","sublocality","political"]},{"long_name":"Chongqing","short_name":"Chongqing","types":["administrative_area_level_1","political"]},{"long_name":"China","short_name":"CN","types":["country","political"]},{"long_name":"400065","short_name":"400065","types":["postal_code"]}],"formatted_address":"Nanping, Nanping Shangquan, Nan'an, China, 400065","geometry":{"location":{"lat":29.525969,"lng":106.569902},"location_type":"APPROXIMATE","viewport":{"northeast":{"lat":29.5273179802915,"lng":106.5712509802915},"southwest":{"lat":29.5246200197085,"lng":106.5685530197085}}},"place_id":"ChIJAbDrU-M0kzYRy9-ZNYIZ3H0","types":["subway_station","transit_station","point_of_interest","establishment"]}],"id":100038},{"city":"Putian","cn":"莆田市","results":[{"address_components":[{"long_name":"Putian","short_name":"Putian","types":["locality","political"]},{"long_name":"Fujian","short_name":"Fujian","types":["administrative_area_level_1","political"]},{"long_name":"China","short_name":"CN","types":["country","political"]}],"formatted_address":"Putian, Fujian, China","geometry":{"bounds":{"northeast":{"lat":25.7602877,"lng":119.6475839},"southwest":{"lat":24.9858157,"lng":118.4598971}},"location":{"lat":25.454085,"lng":119.007777},"location_type":"APPROXIMATE","viewport":{"northeast":{"lat":25.5518399,"lng":119.1824341},"southwest":{"lat":25.2814724,"lng":118.8514709}}},"place_id":"ChIJPeEta_yXajQRykv1DDs-YpM","types":["locality","political"]}],"id":100040},{"city":"Sanming","cn":"三明市","results":[{"address_components":[{"long_name":"Sanming","short_name":"Sanming","types":["locality","political"]},{"long_name":"Fujian","short_name":"Fujian","types":["administrative_area_level_1","political"]},{"long_name":"China","short_name":"CN","types":["country","political"]}],"formatted_address":"Sanming, Fujian, China","geometry":{"bounds":{"northeast":{"lat":27.1298213,"lng":118.6699333},"southwest":{"lat":25.4776808,"lng":116.3845922}},"location":{"lat":26.263407,"lng":117.638678},"location_type":"APPROXIMATE","viewport":{"northeast":{"lat":26.3486938,"lng":117.780304},"southwest":{"lat":26.1553372,"lng":117.4802399}}},"place_id":"ChIJhTZKmYtAPjQRUviqkUPiPcU","types":["locality","political"]}],"id":100042},{"city":"Nan'an","cn":"南安市","results":[{"address_components":[{"long_name":"Nan'an","short_name":"Nan'an","types":["sublocality_level_1","sublocality","political"]},{"long_name":"Quanzhou","short_name":"Quanzhou","types":["locality","political"]},{"long_name":"Fujian","short_name":"Fujian","types":["administrative_area_level_1","political"]},{"long_name":"China","short_name":"CN","types":["country","political"]}],"formatted_address":"Nan'an, Quanzhou, Fujian, China","geometry":{"bounds":{"northeast":{"lat":25.31007,"lng":118.5948973},"southwest":{"lat":24.5613218,"lng":118.1331506}},"location":{"lat":24.960385,"lng":118.386279},"location_type":"APPROXIMATE","viewport":{"northeast":{"lat":25.31007,"lng":118.5948973},"southwest":{"lat":24.5613218,"lng":118.1331506}}},"place_id":"ChIJPZPNOe3eFDQR3bLuaoIRXtA","types":["sublocality_level_1","sublocality","political"]},{"address_components":[{"long_name":"Nan'an","short_name":"Nan'an","types":["sublocality_level_1","sublocality","political"]},{"long_name":"Chongqing","short_name":"Chongqing","types":["locality","political"]},{"long_name":"Chongqing","short_name":"Chongqing","types":["administrative_area_level_1","political"]},{"long_name":"China","short_name":"CN","types":["country","political"]}],"formatted_address":"Nan'an, Chongqing, China","geometry":{"bounds":{"northeast":{"lat":29.6176603,"lng":106.8011707},"southwest":{"lat":29.4577279,"lng":106.5321514}},"location":{"lat":29.500297,"lng":106.644428},"location_type":"APPROXIMATE","viewport":{"northeast":{"lat":29.6176603,"lng":106.8011707},"southwest":{"lat":29.4577279,"lng":106.5321514}}},"place_id":"ChIJQVto7eE0kzYRT_lWbCp5JRY","types":["sublocality_level_1","sublocality","political"]}],"id":100037},{"city":"Quanzhou","cn":"泉州市","results":[{"address_components":[{"long_name":"Quanzhou","short_name":"Quanzhou","types":["locality","political"]},{"long_name":"Fujian","short_name":"Fujian","types":["administrative_area_level_1","political"]},{"long_name":"China","short_name":"CN","types":["country","political"]}],"formatted_address":"Quanzhou, Fujian, China","geometry":{"bounds":{"northeast":{"lat":25.9370159,"lng":119.0474834},"southwest":{"lat":24.371785,"lng":117.5553868}},"location":{"lat":24.874132,"lng":118.675676},"location_type":"APPROXIMATE","viewport":{"northeast":{"lat":24.9747381,"lng":118.7052155},"southwest":{"lat":24.8327317,"lng":118.4621429}}},"place_id":"ChIJFVc-HyvUFDQRCbEIsguuNUM","types":["locality","political"]}],"id":100041},{"city":"Shishi","cn":"石狮市","results":[{"address_components":[{"long_name":"Shishi","short_name":"Shishi","types":["sublocality_level_1","sublocality","political"]},{"long_name":"Quanzhou","short_name":"Quanzhou","types":["locality","political"]},{"long_name":"Fujian","short_name":"Fujian","types":["administrative_area_level_1","political"]},{"long_name":"China","short_name":"CN","types":["country","political"]}],"formatted_address":"Shishi, Quanzhou, Fujian, China","geometry":{"bounds":{"northeast":{"lat":24.8158865,"lng":118.786519},"southwest":{"lat":24.6626104,"lng":118.5843642}},"location":{"lat":24.732246,"lng":118.64794},"location_type":"APPROXIMATE","viewport":{"northeast":{"lat":24.8158865,"lng":118.786519},"southwest":{"lat":24.6626104,"lng":118.5843642}}},"place_id":"ChIJq6CPo8cyazQRzBd-dpsANL0","types":["sublocality_level_1","sublocality","political"]}],"id":100044},{"city":"Shaowu","cn":"邵武市","results":[{"address_components":[{"long_name":"Shaowu","short_name":"Shaowu","types":["sublocality_level_1","sublocality","political"]},{"long_name":"Nanping","short_name":"Nanping","types":["locality","political"]},{"long_name":"Fujian","short_name":"Fujian","types":["administrative_area_level_1","political"]},{"long_name":"China","short_name":"CN","types":["country","political"]}],"formatted_address":"Shaowu, Nanping, Fujian, China","geometry":{"bounds":{"northeast":{"lat":27.5852063,"lng":117.8372086},"southwest":{"lat":26.9201491,"lng":117.0436533}},"location":{"lat":27.340327,"lng":117.492534},"location_type":"APPROXIMATE","viewport":{"northeast":{"lat":27.5852063,"lng":117.8372086},"southwest":{"lat":26.9201491,"lng":117.0436533}}},"place_id":"ChIJY1PghMBLOTQRriA6IGGMbwQ","types":["sublocality_level_1","sublocality","political"]}],"id":100043},{"city":"Xiamen","cn":"厦门市","results":[{"address_components":[{"long_name":"Xiamen","short_name":"Xiamen","types":["locality","political"]},{"long_name":"Fujian","short_name":"Fujian","types":["administrative_area_level_1","political"]},{"long_name":"China","short_name":"CN","types":["country","political"]}],"formatted_address":"Xiamen, Fujian, China","geometry":{"bounds":{"northeast":{"lat":24.9027925,"lng":118.414371},"southwest":{"lat":24.4214498,"lng":117.8860125}},"location":{"lat":24.479834,"lng":118.089425},"location_type":"APPROXIMATE","viewport":{"northeast":{"lat":24.5801199,"lng":118.243103},"southwest":{"lat":24.3782754,"lng":117.9753113}}},"place_id":"ChIJJ-u_5XmDFDQRVtBolgpnoCg","types":["locality","political"]}],"id":100046},{"city":"Yong'an","cn":"永安市","results":[{"address_components":[{"long_name":"Yong'an","short_name":"Yong'an","types":["sublocality_level_1","sublocality","political"]},{"long_name":"Sanming","short_name":"Sanming","types":["locality","political"]},{"long_name":"Fujian","short_name":"Fujian","types":["administrative_area_level_1","political"]},{"long_name":"China","short_name":"CN","types":["country","political"]}],"formatted_address":"Yong'an, Sanming, Fujian, China","geometry":{"bounds":{"northeast":{"lat":26.2043924,"lng":117.7840844},"southwest":{"lat":25.5593476,"lng":116.9394407}},"location":{"lat":25.941937,"lng":117.365053},"location_type":"APPROXIMATE","viewport":{"northeast":{"lat":26.2043924,"lng":117.7840844},"southwest":{"lat":25.5593476,"lng":116.9394407}}},"place_id":"ChIJBeMC3X_4FTQRjEyv5qrpI0g","types":["sublocality_level_1","sublocality","political"]}],"id":100047},{"city":"Wuyishan","cn":"武夷山市","results":[{"address_components":[{"long_name":"Wuyishan","short_name":"Wuyishan","types":["sublocality_level_1","sublocality","political"]},{"long_name":"Nanping","short_name":"Nanping","types":["locality","political"]},{"long_name":"Fujian","short_name":"Fujian","types":["administrative_area_level_1","political"]},{"long_name":"China","short_name":"CN","types":["country","political"]}],"formatted_address":"Wuyishan, Nanping, Fujian, China","geometry":{"bounds":{"northeast":{"lat":28.0757179,"lng":118.3364237},"southwest":{"lat":27.4545006,"lng":117.6330946}},"location":{"lat":27.756648,"lng":118.03531},"location_type":"APPROXIMATE","viewport":{"northeast":{"lat":28.0757179,"lng":118.3364237},"southwest":{"lat":27.4545006,"lng":117.6330946}}},"place_id":"ChIJO1Ilulj5ODQRQBuIr0FH13k","types":["sublocality_level_1","sublocality","political"]}],"id":100045},{"city":"Zhangping","cn":"漳平市","results":[{"address_components":[{"long_name":"Zhangping","short_name":"Zhangping","types":["sublocality_level_1","sublocality","political"]},{"long_name":"Longyan","short_name":"Longyan","types":["locality","political"]},{"long_name":"Fujian","short_name":"Fujian","types":["administrative_area_level_1","political"]},{"long_name":"China","short_name":"CN","types":["country","political"]}],"formatted_address":"Zhangping, Longyan, Fujian, China","geometry":{"bounds":{"northeast":{"lat":25.7858837,"lng":117.7490613},"southwest":{"lat":24.9079255,"lng":117.1728263}},"location":{"lat":25.290185,"lng":117.419998},"location_type":"APPROXIMATE","viewport":{"northeast":{"lat":25.7858837,"lng":117.7490613},"southwest":{"lat":24.9079255,"lng":117.1728263}}},"place_id":"ChIJp67jj4POFTQRU11mCxHo9SE","types":["sublocality_level_1","sublocality","political"]}],"id":100048},{"city":"Dunhuang","cn":"敦煌市","results":[{"address_components":[{"long_name":"Dunhuang","short_name":"Dunhuang","types":["sublocality_level_1","sublocality","political"]},{"long_name":"Jiuquan","short_name":"Jiuquan","types":["locality","political"]},{"long_name":"Gansu","short_name":"Gansu","types":["administrative_area_level_1","political"]},{"long_name":"China","short_name":"CN","types":["country","political"]}],"formatted_address":"Dunhuang, Jiuquan, Gansu, China","geometry":{"bounds":{"northeast":{"lat":41.5728942,"lng":95.5048097},"southwest":{"lat":39.6414953,"lng":92.7034734}},"location":{"lat":40.142128,"lng":94.66196699999999},"location_type":"APPROXIMATE","viewport":{"northeast":{"lat":41.5728942,"lng":95.5048097},"southwest":{"lat":39.6414953,"lng":92.7034734}}},"place_id":"ChIJMXJzSkrB6jcRcsi_xsC_YXQ","types":["sublocality_level_1","sublocality","political"]}],"id":100052},{"city":"Zhangzhou","cn":"漳州市","results":[{"address_components":[{"long_name":"Zhangzhou","short_name":"Zhangzhou","types":["locality","political"]},{"long_name":"Fujian","short_name":"Fujian","types":["administrative_area_level_1","political"]},{"long_name":"China","short_name":"CN","types":["country","political"]}],"formatted_address":"Zhangzhou, Fujian, China","geometry":{"bounds":{"northeast":{"lat":25.2116932,"lng":118.2402986},"southwest":{"lat":23.528783,"lng":116.8957194}},"location":{"lat":24.512949,"lng":117.647481},"location_type":"APPROXIMATE","viewport":{"northeast":{"lat":24.5875968,"lng":117.7960968},"southwest":{"lat":24.4339075,"lng":117.5585175}}},"place_id":"ChIJH6JZDL-MEzQRrrUePtqozTE","types":["locality","political"]}],"id":100049},{"city":"Baiyin","cn":"白银市","results":[{"address_components":[{"long_name":"Baiyin","short_name":"Baiyin","types":["locality","political"]},{"long_name":"Gansu","short_name":"Gansu","types":["administrative_area_level_1","political"]},{"long_name":"China","short_name":"CN","types":["country","political"]}],"formatted_address":"Baiyin, Gansu, China","geometry":{"bounds":{"northeast":{"lat":37.6331736,"lng":105.5206328},"southwest":{"lat":35.4166554,"lng":103.5474554}},"location":{"lat":36.545015,"lng":104.138586},"location_type":"APPROXIMATE","viewport":{"northeast":{"lat":36.6314109,"lng":104.3206787},"southwest":{"lat":36.4526583,"lng":103.9952087}}},"place_id":"ChIJRZcl1eDORDYR9M8ebIrJ__4","types":["locality","political"]}],"id":100050},{"city":"Hezuo","cn":"合作市","results":[{"address_components":[{"long_name":"Hezuo","short_name":"Hezuo","types":["sublocality_level_1","sublocality","political"]},{"long_name":"Gannan","short_name":"Gannan","types":["locality","political"]},{"long_name":"Gansu","short_name":"Gansu","types":["administrative_area_level_1","political"]},{"long_name":"China","short_name":"CN","types":["country","political"]}],"formatted_address":"Hezuo, Gannan, Gansu, China","geometry":{"bounds":{"northeast":{"lat":35.2893976,"lng":103.4027028},"southwest":{"lat":34.58475,"lng":102.7975096}},"location":{"lat":35.000399,"lng":102.910882},"location_type":"APPROXIMATE","viewport":{"northeast":{"lat":35.2893976,"lng":103.4027028},"southwest":{"lat":34.58475,"lng":102.7975096}}},"place_id":"ChIJe4dGDx8kVzYRDDvWg9XGb-Y","types":["sublocality_level_1","sublocality","political"]}],"id":100053},{"city":"Dingxi","cn":"定西市","results":[{"address_components":[{"long_name":"Dingxi","short_name":"Dingxi","types":["locality","political"]},{"long_name":"Gansu","short_name":"Gansu","types":["administrative_area_level_1","political"]},{"long_name":"China","short_name":"CN","types":["country","political"]}],"formatted_address":"Dingxi, Gansu, China","geometry":{"bounds":{"northeast":{"lat":36.04485700000001,"lng":105.6485447},"southwest":{"lat":34.1272286,"lng":103.4709998}},"location":{"lat":35.580663,"lng":104.626282},"location_type":"APPROXIMATE","viewport":{"northeast":{"lat":35.64208989999999,"lng":104.7292328},"southwest":{"lat":35.5063668,"lng":104.5170593}}},"place_id":"ChIJKzPryfeiWzYRHiZ5cfFcv1s","types":["locality","political"]}],"id":100051},{"city":"Jiayuguan","cn":"嘉峪关市","results":[{"address_components":[{"long_name":"Jiayuguan","short_name":"Jiayuguan","types":["locality","political"]},{"long_name":"Gansu","short_name":"Gansu","types":["administrative_area_level_1","political"]},{"long_name":"China","short_name":"CN","types":["country","political"]}],"formatted_address":"Jiayuguan, Gansu, China","geometry":{"bounds":{"northeast":{"lat":39.9997875,"lng":98.5201798},"southwest":{"lat":39.65426350000001,"lng":97.84830579999999}},"location":{"lat":39.77312999999999,"lng":98.289152},"location_type":"APPROXIMATE","viewport":{"northeast":{"lat":39.8817444,"lng":98.406601},"southwest":{"lat":39.6890765,"lng":98.1326294}}},"place_id":"ChIJ6fnfzVoiyDcR8uhli2mbmHc","types":["locality","political"]}],"id":100054},{"city":"Jinchang","cn":"金昌市","results":[{"address_components":[{"long_name":"Jinchang","short_name":"Jinchang","types":["locality","political"]},{"long_name":"Gansu","short_name":"Gansu","types":["administrative_area_level_1","political"]},{"long_name":"China","short_name":"CN","types":["country","political"]}],"formatted_address":"Jinchang, Gansu, China","geometry":{"bounds":{"northeast":{"lat":38.9968476,"lng":102.723737},"southwest":{"lat":38.0250714,"lng":101.3364595}},"location":{"lat":38.520089,"lng":102.188043},"location_type":"APPROXIMATE","viewport":{"northeast":{"lat":38.5716372,"lng":102.3081207},"southwest":{"lat":38.4378477,"lng":102.0863342}}},"place_id":"ChIJB1PxtWJkSTYRrVY_0iy_eK0","types":["locality","political"]}],"id":100055},{"city":"Lanzhou","cn":"兰州市","results":[{"address_components":[{"long_name":"Lanzhou","short_name":"Lanzhou","types":["locality","political"]},{"long_name":"Gansu","short_name":"Gansu","types":["administrative_area_level_1","political"]},{"long_name":"China","short_name":"CN","types":["country","political"]}],"formatted_address":"Lanzhou, Gansu, China","geometry":{"bounds":{"northeast":{"lat":36.9991552,"lng":104.5772687},"southwest":{"lat":35.5711357,"lng":102.6012756}},"location":{"lat":36.061089,"lng":103.834304},"location_type":"APPROXIMATE","viewport":{"northeast":{"lat":36.2582568,"lng":104.0432739},"southwest":{"lat":35.8984926,"lng":103.4788513}}},"place_id":"ChIJgzkMmbWQWjYRXCQNXS4ATJE","types":["locality","political"]}],"id":100057},{"city":"Jiuquan","cn":"酒泉市","results":[{"address_components":[{"long_name":"Jiuquan","short_name":"Jiuquan","types":["locality","political"]},{"long_name":"Gansu","short_name":"Gansu","types":["administrative_area_level_1","political"]},{"long_name":"China","short_name":"CN","types":["country","political"]}],"formatted_address":"Jiuquan, Gansu, China","geometry":{"bounds":{"northeast":{"lat":42.7951629,"lng":100.2425736},"southwest":{"lat":38.1453988,"lng":92.33914659999999}},"location":{"lat":39.732819,"lng":98.49435199999999},"location_type":"APPROXIMATE","viewport":{"northeast":{"lat":39.8237307,"lng":98.6462402},"southwest":{"lat":39.624083,"lng":98.37226869999999}}},"place_id":"ChIJ8xbIkHDRxjcRwubqU_3XmuU","types":["locality","political"]}],"id":100056},{"city":"Linxia","cn":"临夏市","results":[{"address_components":[{"long_name":"Linxia","short_name":"Linxia","types":["locality","political"]},{"long_name":"Gansu","short_name":"Gansu","types":["administrative_area_level_1","political"]},{"long_name":"China","short_name":"CN","types":["country","political"]}],"formatted_address":"Linxia, Gansu, China","geometry":{"bounds":{"northeast":{"lat":36.221778,"lng":103.8561779},"southwest":{"lat":34.9781469,"lng":102.6860028}},"location":{"lat":35.601182,"lng":103.210539},"location_type":"APPROXIMATE","viewport":{"northeast":{"lat":35.7157971,"lng":103.4156799},"southwest":{"lat":35.4410363,"lng":103.0119324}}},"place_id":"ChIJMZXkNY-UUDYR_-nUJXL-4HM","types":["locality","political"]},{"address_components":[{"long_name":"Linxia","short_name":"Linxia","types":["sublocality_level_1","sublocality","political"]},{"long_name":"Linxia","short_name":"Linxia","types":["locality","political"]},{"long_name":"Gansu","short_name":"Gansu","types":["administrative_area_level_1","political"]},{"long_name":"China","short_name":"CN","types":["country","political"]}],"formatted_address":"Linxia, Linxia, Gansu, China","geometry":{"bounds":{"northeast":{"lat":35.6551069,"lng":103.2835618},"southwest":{"lat":35.4946986,"lng":103.0736821}},"location":{"lat":35.60437599999999,"lng":103.243021},"location_type":"APPROXIMATE","viewport":{"northeast":{"lat":35.6551069,"lng":103.2835618},"southwest":{"lat":35.4946986,"lng":103.0736821}}},"place_id":"ChIJUQJ8MirrUDYRsv0jlKZgBR8","types":["sublocality_level_1","sublocality","political"]},{"address_components":[{"long_name":"Linxia","short_name":"Linxia","types":["sublocality_level_1","sublocality","political"]},{"long_name":"Linxia","short_name":"Linxia","types":["locality","political"]},{"long_name":"Gansu","short_name":"Gansu","types":["administrative_area_level_1","political"]},{"long_name":"China","short_name":"CN","types":["country","political"]}],"formatted_address":"Linxia, Linxia, Gansu, China","geometry":{"bounds":{"northeast":{"lat":35.8067814,"lng":103.2980385},"southwest":{"lat":35.2530091,"lng":102.7271737}},"location":{"lat":35.491637,"lng":102.995502},"location_type":"APPROXIMATE","viewport":{"northeast":{"lat":35.8067814,"lng":103.2980385},"southwest":{"lat":35.2530091,"lng":102.7271737}}},"place_id":"ChIJmZ5kQyqVUDYR01XxusmV8Xg","types":["sublocality_level_1","sublocality","political"]}],"id":100058},{"city":"Longnan","cn":"陇南市","results":[{"address_components":[{"long_name":"Longnan","short_name":"Longnan","types":["locality","political"]},{"long_name":"Gansu","short_name":"Gansu","types":["administrative_area_level_1","political"]},{"long_name":"China","short_name":"CN","types":["country","political"]}],"formatted_address":"Longnan, Gansu, China","geometry":{"bounds":{"northeast":{"lat":34.5332031,"lng":106.584848},"southwest":{"lat":32.5941106,"lng":104.0265301}},"location":{"lat":33.400685,"lng":104.921841},"location_type":"APPROXIMATE","viewport":{"northeast":{"lat":33.4266945,"lng":105.0121307},"southwest":{"lat":33.344138,"lng":104.8596954}}},"place_id":"ChIJzX8CWmM1XzYRfYSmjNBaUgs","types":["locality","political"]}],"id":100059},{"city":"Pingliang","cn":"平凉市","results":[],"id":100060},{"city":"Wuwei","cn":"武威市","results":[{"address_components":[{"long_name":"Wuwei","short_name":"Wuwei","types":["locality","political"]},{"long_name":"Gansu","short_name":"Gansu","types":["administrative_area_level_1","political"]},{"long_name":"China","short_name":"CN","types":["country","political"]}],"formatted_address":"Wuwei, Gansu, China","geometry":{"bounds":{"northeast":{"lat":39.4613751,"lng":104.2073273},"southwest":{"lat":36.7533368,"lng":101.8305652}},"location":{"lat":37.928262,"lng":102.638084},"location_type":"APPROXIMATE","viewport":{"northeast":{"lat":37.9947982,"lng":102.7180481},"southwest":{"lat":37.8602014,"lng":102.5549698}}},"place_id":"ChIJfdkm_r3NSDYRePyA2IoxIIE","types":["locality","political"]}],"id":100063},{"city":"Qingyang","cn":"庆阳市","results":[{"address_components":[{"long_name":"Qingyang","short_name":"Qingyang","types":["locality","political"]},{"long_name":"Gansu","short_name":"Gansu","types":["administrative_area_level_1","political"]},{"long_name":"China","short_name":"CN","types":["country","political"]}],"formatted_address":"Qingyang, Gansu, China","geometry":{"bounds":{"northeast":{"lat":37.1586526,"lng":108.7123363},"southwest":{"lat":35.2415424,"lng":106.3614485}},"location":{"lat":35.709077,"lng":107.643631},"location_type":"APPROXIMATE","viewport":{"northeast":{"lat":35.8093235,"lng":107.7614594},"southwest":{"lat":35.6526961,"lng":107.535553}}},"place_id":"ChIJx_HsNZEeZjYRJdL2TCxpfA8","types":["locality","political"]}],"id":100061},{"city":"Tianshui","cn":"天水市","results":[],"id":100062},{"city":"Yumen","cn":"玉门市","results":[{"address_components":[{"long_name":"Yumen","short_name":"Yumen","types":["sublocality_level_1","sublocality","political"]},{"long_name":"Jiuquan","short_name":"Jiuquan","types":["locality","political"]},{"long_name":"Gansu","short_name":"Gansu","types":["administrative_area_level_1","political"]},{"long_name":"China","short_name":"CN","types":["country","political"]}],"formatted_address":"Yumen, Jiuquan, Gansu, China","geometry":{"bounds":{"northeast":{"lat":40.9197953,"lng":98.3322239},"southwest":{"lat":39.62757550000001,"lng":96.4843097}},"location":{"lat":40.29184300000001,"lng":97.04567899999999},"location_type":"APPROXIMATE","viewport":{"northeast":{"lat":40.9197953,"lng":98.3322239},"southwest":{"lat":39.62757550000001,"lng":96.4843097}}},"place_id":"ChIJaa_pBCKvxzcRIfVcOupTHas","types":["sublocality_level_1","sublocality","political"]}],"id":100064},{"city":"Zhangye","cn":"张掖市","results":[{"address_components":[{"long_name":"Zhangye","short_name":"Zhangye","types":["locality","political"]},{"long_name":"Gansu","short_name":"Gansu","types":["administrative_area_level_1","political"]},{"long_name":"China","short_name":"CN","types":["country","political"]}],"formatted_address":"Zhangye, Gansu, China","geometry":{"bounds":{"northeast":{"lat":39.8880573,"lng":102.2050997},"southwest":{"lat":37.6276409,"lng":97.3950539}},"location":{"lat":38.925875,"lng":100.449818},"location_type":"APPROXIMATE","viewport":{"northeast":{"lat":39.0538257,"lng":100.6567383},"southwest":{"lat":38.7818488,"lng":100.2859497}}},"place_id":"ChIJ73K1ws1btDcRAgElgPDLVW4","types":["locality","political"]}],"id":100065},{"city":"Dongguan","cn":"东莞市","results":[{"address_components":[{"long_name":"Dongguan","short_name":"Dongguan","types":["locality","political"]},{"long_name":"Guangdong","short_name":"Guangdong","types":["administrative_area_level_1","political"]},{"long_name":"China","short_name":"CN","types":["country","political"]}],"formatted_address":"Dongguan, Guangdong, China","geometry":{"bounds":{"northeast":{"lat":23.1420507,"lng":114.2603125},"southwest":{"lat":22.6537024,"lng":113.5226997}},"location":{"lat":23.020536,"lng":113.751765},"location_type":"APPROXIMATE","viewport":{"northeast":{"lat":23.2119382,"lng":114.0394592},"southwest":{"lat":22.7404596,"lng":113.5491943}}},"place_id":"ChIJ5ROI3ZQKAzQRQ3q8DjAgg3Y","types":["locality","political"]}],"id":100067},{"city":"Gaozhou","cn":"高州市","results":[{"address_components":[{"long_name":"Gaozhou","short_name":"Gaozhou","types":["sublocality_level_1","sublocality","political"]},{"long_name":"Maoming","short_name":"Maoming","types":["locality","political"]},{"long_name":"Guangdong","short_name":"Guangdong","types":["administrative_area_level_1","political"]},{"long_name":"China","short_name":"CN","types":["country","political"]}],"formatted_address":"Gaozhou, Maoming, Guangdong, China","geometry":{"bounds":{"northeast":{"lat":22.3101706,"lng":111.3841161},"southwest":{"lat":21.7068275,"lng":110.6172139}},"location":{"lat":21.917982,"lng":110.853302},"location_type":"APPROXIMATE","viewport":{"northeast":{"lat":22.3101706,"lng":111.3841161},"southwest":{"lat":21.7068275,"lng":110.6172139}}},"place_id":"ChIJjQ0iP3V-rDYRBtGVA6GCwPY","types":["sublocality_level_1","sublocality","political"]}],"id":100070},{"city":"Enping","cn":"恩平市","results":[{"address_components":[{"long_name":"Enping","short_name":"Enping","types":["sublocality_level_1","sublocality","political"]},{"long_name":"Jiangmen","short_name":"Jiangmen","types":["locality","political"]},{"long_name":"Guangdong","short_name":"Guangdong","types":["administrative_area_level_1","political"]},{"long_name":"China","short_name":"CN","types":["country","political"]}],"formatted_address":"Enping, Jiangmen, Guangdong, China","geometry":{"bounds":{"northeast":{"lat":22.4922878,"lng":112.5291023},"southwest":{"lat":21.9130353,"lng":112.0034739}},"location":{"lat":22.183206,"lng":112.305145},"location_type":"APPROXIMATE","viewport":{"northeast":{"lat":22.4922878,"lng":112.5291023},"southwest":{"lat":21.9130353,"lng":112.0034739}}},"place_id":"ChIJuRqLgQ0VqjYR7vOeCfkSUPY","types":["sublocality_level_1","sublocality","political"]}],"id":100068},{"city":"Chaozhou","cn":"潮州市","results":[{"address_components":[{"long_name":"Chaozhou","short_name":"Chaozhou","types":["locality","political"]},{"long_name":"Guangdong","short_name":"Guangdong","types":["administrative_area_level_1","political"]},{"long_name":"China","short_name":"CN","types":["country","political"]}],"formatted_address":"Chaozhou, Guangdong, China","geometry":{"bounds":{"northeast":{"lat":24.2328039,"lng":117.1925883},"southwest":{"lat":23.4247515,"lng":116.3684601}},"location":{"lat":23.65695,"lng":116.622604},"location_type":"APPROXIMATE","viewport":{"northeast":{"lat":23.750056,"lng":116.7366028},"southwest":{"lat":23.5657665,"lng":116.4935303}}},"place_id":"ChIJdRccxB2iETQR_CXG6XDjLzU","types":["locality","political"]},{"address_components":[{"long_name":"Maoming","short_name":"Maoming","types":["locality","political"]},{"long_name":"Guangdong","short_name":"Guangdong","types":["administrative_area_level_1","political"]},{"long_name":"China","short_name":"CN","types":["country","political"]}],"formatted_address":"Maoming, Guangdong, China","geometry":{"bounds":{"northeast":{"lat":22.7043343,"lng":111.6833625},"southwest":{"lat":21.3714027,"lng":110.3254961}},"location":{"lat":21.662999,"lng":110.925456},"location_type":"APPROXIMATE","viewport":{"northeast":{"lat":21.7364338,"lng":111.0250854},"southwest":{"lat":21.568596,"lng":110.8314514}}},"place_id":"ChIJLZxSU4N-rDYRVia8FrM5T6Y","types":["locality","political"]}],"id":100066},{"city":"Foshan","cn":"佛山市","results":[{"address_components":[{"long_name":"Foshan","short_name":"Foshan","types":["locality","political"]},{"long_name":"Guangdong","short_name":"Guangdong","types":["administrative_area_level_1","political"]},{"long_name":"China","short_name":"CN","types":["country","political"]}],"formatted_address":"Foshan, Guangdong, China","geometry":{"bounds":{"northeast":{"lat":23.5734509,"lng":113.3934284},"southwest":{"lat":22.6422438,"lng":112.3908185}},"location":{"lat":23.021479,"lng":113.121436},"location_type":"APPROXIMATE","viewport":{"northeast":{"lat":23.1440748,"lng":113.2717896},"southwest":{"lat":22.8735877,"lng":112.9408264}}},"place_id":"ChIJt6V5UFhZAjQRGe397NrIYUA","types":["locality","political"]}],"id":100069},{"city":"Huazhou","cn":"化州市","results":[{"address_components":[{"long_name":"Huazhou","short_name":"Huazhou","types":["sublocality_level_1","sublocality","political"]},{"long_name":"Maoming","short_name":"Maoming","types":["locality","political"]},{"long_name":"Guangdong","short_name":"Guangdong","types":["administrative_area_level_1","political"]},{"long_name":"China","short_name":"CN","types":["country","political"]}],"formatted_address":"Huazhou, Maoming, Guangdong, China","geometry":{"bounds":{"northeast":{"lat":22.2090857,"lng":110.7548899},"southwest":{"lat":21.4471326,"lng":110.3254961}},"location":{"lat":21.664044,"lng":110.639569},"location_type":"APPROXIMATE","viewport":{"northeast":{"lat":22.2090857,"lng":110.7548899},"southwest":{"lat":21.4471326,"lng":110.3254961}}},"place_id":"ChIJaTUSw_PBrDYRzX8JIfYdyUE","types":["sublocality_level_1","sublocality","political"]}],"id":100074},{"city":"Heyuan","cn":"河源市","results":[{"address_components":[{"long_name":"Heyuan","short_name":"Heyuan","types":["locality","political"]},{"long_name":"Guangdong","short_name":"Guangdong","types":["administrative_area_level_1","political"]},{"long_name":"China","short_name":"CN","types":["country","political"]}],"formatted_address":"Heyuan, Guangdong, China","geometry":{"bounds":{"northeast":{"lat":24.793381,"lng":115.5930666},"southwest":{"lat":23.1644107,"lng":114.2418357}},"location":{"lat":23.743686,"lng":114.700961},"location_type":"APPROXIMATE","viewport":{"northeast":{"lat":23.8254536,"lng":114.8297882},"southwest":{"lat":23.6330977,"lng":114.6334076}}},"place_id":"ChIJs1osvejhGjQRGr8LQCfJkIc","types":["locality","political"]}],"id":100073},{"city":"Guangzhou","cn":"广州市","results":[{"address_components":[{"long_name":"Guangzhou","short_name":"Guangzhou","types":["locality","political"]},{"long_name":"Guangdong","short_name":"Guangdong","types":["administrative_area_level_1","political"]},{"long_name":"China","short_name":"CN","types":["country","political"]}],"formatted_address":"Guangzhou, Guangdong, China","geometry":{"bounds":{"northeast":{"lat":23.9329877,"lng":114.0599571},"southwest":{"lat":22.5598069,"lng":112.9585068}},"location":{"lat":23.12911,"lng":113.264385},"location_type":"APPROXIMATE","viewport":{"northeast":{"lat":23.555094,"lng":113.7332153},"southwest":{"lat":22.6961015,"lng":112.7224731}}},"place_id":"ChIJxytco5X4AjQRFeTqrXXgWQ4","types":["locality","political"]}],"id":100071},{"city":"Kaiping","cn":"开平市","results":[{"address_components":[{"long_name":"Kaiping","short_name":"Kaiping","types":["sublocality_level_1","sublocality","political"]},{"long_name":"Jiangmen","short_name":"Jiangmen","types":["locality","political"]},{"long_name":"Guangdong","short_name":"Guangdong","types":["administrative_area_level_1","political"]},{"long_name":"China","short_name":"CN","types":["country","political"]}],"formatted_address":"Kaiping, Jiangmen, Guangdong, China","geometry":{"bounds":{"northeast":{"lat":22.6660648,"lng":112.8171307},"southwest":{"lat":21.9702792,"lng":112.2354882}},"location":{"lat":22.376395,"lng":112.698545},"location_type":"APPROXIMATE","viewport":{"northeast":{"lat":22.6660648,"lng":112.8171307},"southwest":{"lat":21.9702792,"lng":112.2354882}}},"place_id":"ChIJG0wsiCT8ATQRqQK4l74FE2o","types":["sublocality_level_1","sublocality","political"]},{"address_components":[{"long_name":"Kaiping","short_name":"Kaiping","types":["sublocality_level_1","sublocality","political"]},{"long_name":"Tangshan","short_name":"Tangshan","types":["locality","political"]},{"long_name":"Hebei","short_name":"Hebei","types":["administrative_area_level_1","political"]},{"long_name":"China","short_name":"CN","types":["country","political"]}],"formatted_address":"Kaiping, Tangshan, Hebei, China","geometry":{"bounds":{"northeast":{"lat":39.805153,"lng":118.3771819},"southwest":{"lat":39.5652216,"lng":118.1653041}},"location":{"lat":39.671001,"lng":118.261841},"location_type":"APPROXIMATE","viewport":{"northeast":{"lat":39.805153,"lng":118.3771819},"southwest":{"lat":39.5652216,"lng":118.1653041}}},"place_id":"ChIJZQIlx14Y8zURyhkUJhx047A","types":["sublocality_level_1","sublocality","political"]}],"id":100078},{"city":"Jiangmen","cn":"江门市","results":[],"id":100076},{"city":"Heshan","cn":"鹤山市","results":[{"address_components":[{"long_name":"Heshan","short_name":"Heshan","types":["sublocality_level_1","sublocality","political"]},{"long_name":"Jiangmen","short_name":"Jiangmen","types":["locality","political"]},{"long_name":"Guangdong","short_name":"Guangdong","types":["administrative_area_level_1","political"]},{"long_name":"China","short_name":"CN","types":["country","political"]}],"formatted_address":"Heshan, Jiangmen, Guangdong, China","geometry":{"bounds":{"northeast":{"lat":22.8562908,"lng":113.0495251},"southwest":{"lat":22.4664972,"lng":112.4765869}},"location":{"lat":22.765435,"lng":112.964283},"location_type":"APPROXIMATE","viewport":{"northeast":{"lat":22.8562908,"lng":113.0495251},"southwest":{"lat":22.4664972,"lng":112.4765869}}},"place_id":"ChIJc2CExroDAjQRq5uo_QuS9IY","types":["sublocality_level_1","sublocality","political"]},{"address_components":[{"long_name":"Heshan","short_name":"Heshan","types":["sublocality_level_1","sublocality","political"]},{"long_name":"Yiyang","short_name":"Yiyang","types":["locality","political"]},{"long_name":"Hunan","short_name":"Hunan","types":["administrative_area_level_1","political"]},{"long_name":"China","short_name":"CN","types":["country","political"]}],"formatted_address":"Heshan, Yiyang, Hunan, China","geometry":{"bounds":{"northeast":{"lat":28.6548072,"lng":112.7362772},"southwest":{"lat":28.2744643,"lng":112.1964583}},"location":{"lat":28.579343,"lng":112.374024},"location_type":"APPROXIMATE","viewport":{"northeast":{"lat":28.6548072,"lng":112.7362772},"southwest":{"lat":28.2744643,"lng":112.1964583}}},"place_id":"ChIJO7cuxa_xnTYR9EHKoxH-HGo","types":["sublocality_level_1","sublocality","political"]},{"address_components":[{"long_name":"Heshan","short_name":"Heshan","types":["sublocality_level_1","sublocality","political"]},{"long_name":"Laibin","short_name":"Laibin","types":["locality","political"]},{"long_name":"Guangxi","short_name":"Guangxi","types":["administrative_area_level_1","political"]},{"long_name":"China","short_name":"CN","types":["country","political"]}],"formatted_address":"Heshan, Laibin, Guangxi, China","geometry":{"bounds":{"northeast":{"lat":23.9252893,"lng":109.0519135},"southwest":{"lat":23.6614099,"lng":108.8329127}},"location":{"lat":23.806536,"lng":108.886082},"location_type":"APPROXIMATE","viewport":{"northeast":{"lat":23.9252893,"lng":109.0519135},"southwest":{"lat":23.6614099,"lng":108.8329127}}},"place_id":"ChIJS8ntBGFRsDYRgzgtvgB6r1Y","types":["sublocality_level_1","sublocality","political"]},{"address_components":[{"long_name":"Heshan","short_name":"Heshan","types":["sublocality_level_1","sublocality","political"]},{"long_name":"Hebi","short_name":"Hebi","types":["locality","political"]},{"long_name":"Henan","short_name":"Henan","types":["administrative_area_level_1","political"]},{"long_name":"China","short_name":"CN","types":["country","political"]}],"formatted_address":"Heshan, Hebi, Henan, China","geometry":{"bounds":{"northeast":{"lat":36.0477859,"lng":114.2099879},"southwest":{"lat":35.9115498,"lng":114.0285261}},"location":{"lat":35.95458199999999,"lng":114.163367},"location_type":"APPROXIMATE","viewport":{"northeast":{"lat":36.0477859,"lng":114.2099879},"southwest":{"lat":35.9115498,"lng":114.0285261}}},"place_id":"ChIJ-9-WfOtX2TURHJENMY2EMR8","types":["sublocality_level_1","sublocality","political"]}],"id":100072},{"city":"Jieyang","cn":"揭阳市","results":[],"id":100077},{"city":"Huizhou","cn":"惠州市","results":[{"address_components":[{"long_name":"Huizhou","short_name":"Huizhou","types":["locality","political"]},{"long_name":"Guangdong","short_name":"Guangdong","types":["administrative_area_level_1","political"]},{"long_name":"China","short_name":"CN","types":["country","political"]}],"formatted_address":"Huizhou, Guangdong, China","geometry":{"bounds":{"northeast":{"lat":23.9601956,"lng":115.4265308},"southwest":{"lat":22.400534,"lng":113.8137687}},"location":{"lat":23.111847,"lng":114.416196},"location_type":"APPROXIMATE","viewport":{"northeast":{"lat":23.2406699,"lng":114.609375},"southwest":{"lat":22.9362132,"lng":114.2378998}}},"place_id":"ChIJDWb7zyWOBDQRB9vl0zFCCm8","types":["locality","political"]}],"id":100075},{"city":"Lianjiang","cn":"廉江市","results":[{"address_components":[{"long_name":"Lianjiang","short_name":"Lianjiang","types":["sublocality_level_1","sublocality","political"]},{"long_name":"Zhanjiang","short_name":"Zhanjiang","types":["locality","political"]},{"long_name":"Guangdong","short_name":"Guangdong","types":["administrative_area_level_1","political"]},{"long_name":"China","short_name":"CN","types":["country","political"]}],"formatted_address":"Lianjiang, Zhanjiang, Guangdong, China","geometry":{"bounds":{"northeast":{"lat":21.9553961,"lng":110.5129507},"southwest":{"lat":21.402325,"lng":109.7432724}},"location":{"lat":21.609673,"lng":110.286152},"location_type":"APPROXIMATE","viewport":{"northeast":{"lat":21.9553961,"lng":110.5129507},"southwest":{"lat":21.402325,"lng":109.7432724}}},"place_id":"ChIJtwyKaLc8rTYRmC2UL0fzGoU","types":["sublocality_level_1","sublocality","political"]},{"address_components":[{"long_name":"Lianjiang","short_name":"Lianjiang","types":["sublocality_level_1","sublocality","political"]},{"long_name":"Fuzhou","short_name":"Fuzhou","types":["locality","political"]},{"long_name":"Fujian","short_name":"Fujian","types":["administrative_area_level_1","political"]},{"long_name":"China","short_name":"CN","types":["country","political"]}],"formatted_address":"Lianjiang, Fuzhou, Fujian, China","geometry":{"bounds":{"northeast":{"lat":26.4619481,"lng":120.5161888},"southwest":{"lat":26.0816005,"lng":119.2724204}},"location":{"lat":26.197364,"lng":119.539704},"location_type":"APPROXIMATE","viewport":{"northeast":{"lat":26.4619481,"lng":120.0911421},"southwest":{"lat":26.0816005,"lng":119.2724204}}},"place_id":"ChIJMZSW9gIQQTQRCnqi5GODR-s","types":["sublocality_level_1","sublocality","political"]}],"id":100081},{"city":"Lechang","cn":"乐昌市","results":[{"address_components":[{"long_name":"Lechang","short_name":"Lechang","types":["sublocality_level_1","sublocality","political"]},{"long_name":"Shaoguan","short_name":"Shaoguan","types":["locality","political"]},{"long_name":"Guangdong","short_name":"Guangdong","types":["administrative_area_level_1","political"]},{"long_name":"China","short_name":"CN","types":["country","political"]}],"formatted_address":"Lechang, Shaoguan, Guangdong, China","geometry":{"bounds":{"northeast":{"lat":25.5167714,"lng":113.5833291},"southwest":{"lat":24.9579632,"lng":112.8517919}},"location":{"lat":25.130136,"lng":113.347519},"location_type":"APPROXIMATE","viewport":{"northeast":{"lat":25.5167714,"lng":113.5833291},"southwest":{"lat":24.9579632,"lng":112.8517919}}},"place_id":"ChIJUdI9NW7THTQR-2jtcGZGtwk","types":["sublocality_level_1","sublocality","political"]}],"id":100079},{"city":"Leizhou","cn":"雷州市","results":[{"address_components":[{"long_name":"Leizhou","short_name":"Leizhou","types":["sublocality_level_1","sublocality","political"]},{"long_name":"Zhanjiang","short_name":"Zhanjiang","types":["locality","political"]},{"long_name":"Guangdong","short_name":"Guangdong","types":["administrative_area_level_1","political"]},{"long_name":"China","short_name":"CN","types":["country","political"]}],"formatted_address":"Leizhou, Zhanjiang, Guangdong, China","geometry":{"bounds":{"northeast":{"lat":21.1793452,"lng":110.4077484},"southwest":{"lat":20.422748,"lng":109.6549364}},"location":{"lat":20.914278,"lng":110.096749},"location_type":"APPROXIMATE","viewport":{"northeast":{"lat":21.1793452,"lng":110.4077484},"southwest":{"lat":20.422748,"lng":109.6549364}}},"place_id":"ChIJZw4XOTvyUjERCzmVbajNBdc","types":["sublocality_level_1","sublocality","political"]}],"id":100080},{"city":"Lianzhou","cn":"连州市","results":[{"address_components":[{"long_name":"Lianzhou","short_name":"Lianzhou","types":["sublocality_level_1","sublocality","political"]},{"long_name":"Qingyuan","short_name":"Qingyuan","types":["locality","political"]},{"long_name":"Guangdong","short_name":"Guangdong","types":["administrative_area_level_1","political"]},{"long_name":"China","short_name":"CN","types":["country","political"]}],"formatted_address":"Lianzhou, Qingyuan, Guangdong, China","geometry":{"bounds":{"northeast":{"lat":25.191722,"lng":112.7867078},"southwest":{"lat":24.6122635,"lng":112.1198642}},"location":{"lat":24.780966,"lng":112.377361},"location_type":"APPROXIMATE","viewport":{"northeast":{"lat":25.191722,"lng":112.7867078},"southwest":{"lat":24.6122635,"lng":112.1198642}}},"place_id":"ChIJCZnJxeJlpzYRcoWFdC808y4","types":["sublocality_level_1","sublocality","political"]}],"id":100082},{"city":"Lufeng","cn":"陆丰市","results":[{"address_components":[{"long_name":"Lufeng","short_name":"Lufeng","types":["sublocality_level_1","sublocality","political"]},{"long_name":"Shanwei","short_name":"Shanwei","types":["locality","political"]},{"long_name":"Guangdong","short_name":"Guangdong","types":["administrative_area_level_1","political"]},{"long_name":"China","short_name":"CN","types":["country","political"]}],"formatted_address":"Lufeng, Shanwei, Guangdong, China","geometry":{"bounds":{"northeast":{"lat":23.159441,"lng":116.2269524},"southwest":{"lat":22.7219051,"lng":115.4771668}},"location":{"lat":22.917576,"lng":115.65226},"location_type":"APPROXIMATE","viewport":{"northeast":{"lat":23.159441,"lng":116.2269524},"southwest":{"lat":22.7219051,"lng":115.4771668}}},"place_id":"ChIJOY0OY0FiBTQRqzODRUiMQwA","types":["sublocality_level_1","sublocality","political"]}],"id":100083},{"city":"Luoding","cn":"罗定市","results":[{"address_components":[{"long_name":"Luoding","short_name":"Luoding","types":["sublocality_level_1","sublocality","political"]},{"long_name":"Yunfu","short_name":"Yunfu","types":["locality","political"]},{"long_name":"Guangdong","short_name":"Guangdong","types":["administrative_area_level_1","political"]},{"long_name":"China","short_name":"CN","types":["country","political"]}],"formatted_address":"Luoding, Yunfu, Guangdong, China","geometry":{"bounds":{"northeast":{"lat":22.9549123,"lng":111.8972589},"southwest":{"lat":22.4252452,"lng":111.0569881}},"location":{"lat":22.768595,"lng":111.570011},"location_type":"APPROXIMATE","viewport":{"northeast":{"lat":22.9549123,"lng":111.8972589},"southwest":{"lat":22.4252452,"lng":111.0569881}}},"place_id":"ChIJN_RUGodgqTYRErD5IxHJQwQ","types":["sublocality_level_1","sublocality","political"]}],"id":100084},{"city":"Maoming","cn":"茂名市","results":[{"address_components":[{"long_name":"Maoming","short_name":"Maoming","types":["locality","political"]},{"long_name":"Guangdong","short_name":"Guangdong","types":["administrative_area_level_1","political"]},{"long_name":"China","short_name":"CN","types":["country","political"]}],"formatted_address":"Maoming, Guangdong, China","geometry":{"bounds":{"northeast":{"lat":22.7043343,"lng":111.6833625},"southwest":{"lat":21.3714027,"lng":110.3254961}},"location":{"lat":21.662999,"lng":110.925456},"location_type":"APPROXIMATE","viewport":{"northeast":{"lat":21.7364338,"lng":111.0250854},"southwest":{"lat":21.568596,"lng":110.8314514}}},"place_id":"ChIJLZxSU4N-rDYRVia8FrM5T6Y","types":["locality","political"]}],"id":100085},{"city":"Puning","cn":"普宁市","results":[],"id":100088},{"city":"Meizhou","cn":"梅州市","results":[{"address_components":[{"long_name":"Meizhou","short_name":"Meizhou","types":["locality","political"]},{"long_name":"Guangdong","short_name":"Guangdong","types":["administrative_area_level_1","political"]},{"long_name":"China","short_name":"CN","types":["country","political"]}],"formatted_address":"Meizhou, Guangdong, China","geometry":{"bounds":{"northeast":{"lat":24.9376921,"lng":116.9394748},"southwest":{"lat":23.373675,"lng":115.3164851}},"location":{"lat":24.288615,"lng":116.122239},"location_type":"APPROXIMATE","viewport":{"northeast":{"lat":24.4176864,"lng":116.3019562},"southwest":{"lat":24.1517096,"lng":115.9462738}}},"place_id":"ChIJWV_HaozrEDQR8r_LUTCR20M","types":["locality","political"]}],"id":100086},{"city":"Nanxiong","cn":"南雄市","results":[{"address_components":[{"long_name":"Nanxiong","short_name":"Nanxiong","types":["sublocality_level_1","sublocality","political"]},{"long_name":"Shaoguan","short_name":"Shaoguan","types":["locality","political"]},{"long_name":"Guangdong","short_name":"Guangdong","types":["administrative_area_level_1","political"]},{"long_name":"China","short_name":"CN","types":["country","political"]}],"formatted_address":"Nanxiong, Shaoguan, Guangdong, China","geometry":{"bounds":{"northeast":{"lat":25.417031,"lng":114.7493559},"southwest":{"lat":24.9477196,"lng":113.9318991}},"location":{"lat":25.117753,"lng":114.311982},"location_type":"APPROXIMATE","viewport":{"northeast":{"lat":25.417031,"lng":114.7493559},"southwest":{"lat":24.9477196,"lng":113.9318991}}},"place_id":"ChIJUdGBpglXGTQRPIa6YXz914o","types":["sublocality_level_1","sublocality","political"]}],"id":100087},{"city":"Qingyuan","cn":"清远市","results":[{"address_components":[{"long_name":"Qingyuan","short_name":"Qingyuan","types":["locality","political"]},{"long_name":"Guangdong","short_name":"Guangdong","types":["administrative_area_level_1","political"]},{"long_name":"China","short_name":"CN","types":["country","political"]}],"formatted_address":"Qingyuan, Guangdong, China","geometry":{"bounds":{"northeast":{"lat":25.191722,"lng":113.9311346},"southwest":{"lat":23.4475709,"lng":111.9274342}},"location":{"lat":23.681764,"lng":113.056031},"location_type":"APPROXIMATE","viewport":{"northeast":{"lat":23.8166802,"lng":113.2175446},"southwest":{"lat":23.5161273,"lng":112.8755951}}},"place_id":"ChIJNfOwxDTIAjQRGJkZOWMUpKU","types":["locality","political"]}],"id":100089},{"city":"Shantou","cn":"汕头市","results":[{"address_components":[{"long_name":"Shantou","short_name":"Shantou","types":["locality","political"]},{"long_name":"Guangdong","short_name":"Guangdong","types":["administrative_area_level_1","political"]},{"long_name":"China","short_name":"CN","types":["country","political"]}],"formatted_address":"Shantou, Guangdong, China","geometry":{"bounds":{"northeast":{"lat":23.6457825,"lng":117.3185073},"southwest":{"lat":23.0398236,"lng":116.2445705}},"location":{"lat":23.354091,"lng":116.681972},"location_type":"APPROXIMATE","viewport":{"northeast":{"lat":23.5409276,"lng":116.9796753},"southwest":{"lat":23.1336808,"lng":116.5141296}}},"place_id":"ChIJHdYSiZ7bETQRxQKrHQ72sB8","types":["locality","political"]}],"id":100090},{"city":"Shanwei","cn":"汕尾市","results":[{"address_components":[{"long_name":"Shanwei","short_name":"Shanwei","types":["locality","political"]},{"long_name":"Guangdong","short_name":"Guangdong","types":["administrative_area_level_1","political"]},{"long_name":"China","short_name":"CN","types":["country","political"]}],"formatted_address":"Shanwei, Guangdong, China","geometry":{"bounds":{"northeast":{"lat":23.4726476,"lng":116.2265232},"southwest":{"lat":22.6252891,"lng":114.9178322}},"location":{"lat":22.786211,"lng":115.375279},"location_type":"APPROXIMATE","viewport":{"northeast":{"lat":22.8426211,"lng":115.4556656},"southwest":{"lat":22.7153738,"lng":115.3090668}}},"place_id":"ChIJmc_NQcxgBTQR-BqkLy7w-Sk","types":["locality","political"]}],"id":100091},{"city":"Shenzhen","cn":"深圳市","results":[{"address_components":[{"long_name":"Shenzhen","short_name":"Shenzhen","types":["locality","political"]},{"long_name":"Guangdong","short_name":"Guangdong","types":["administrative_area_level_1","political"]},{"long_name":"China","short_name":"CN","types":["country","political"]}],"formatted_address":"Shenzhen, Guangdong, China","geometry":{"bounds":{"northeast":{"lat":22.8617484,"lng":114.627296},"southwest":{"lat":22.4450271,"lng":113.7569184}},"location":{"lat":22.543099,"lng":114.057868},"location_type":"APPROXIMATE","viewport":{"northeast":{"lat":22.7809313,"lng":114.3553162},"southwest":{"lat":22.3293893,"lng":113.7524414}}},"place_id":"ChIJkVLh0Aj0AzQRyYCStw1V7v0","types":["locality","political"]}],"id":100093},{"city":"Shaoguan","cn":"韶关市","results":[{"address_components":[{"long_name":"Shaoguan","short_name":"Shaoguan","types":["locality","political"]},{"long_name":"Guangdong","short_name":"Guangdong","types":["administrative_area_level_1","political"]},{"long_name":"China","short_name":"CN","types":["country","political"]}],"formatted_address":"Shaoguan, Guangdong, China","geometry":{"bounds":{"northeast":{"lat":25.5167714,"lng":114.7493559},"southwest":{"lat":23.8879162,"lng":112.8517919}},"location":{"lat":24.810403,"lng":113.597522},"location_type":"APPROXIMATE","viewport":{"northeast":{"lat":24.9162388,"lng":113.7538147},"southwest":{"lat":24.6594446,"lng":113.4558105}}},"place_id":"ChIJi4spWbxHHDQR5F5WxHZNnls","types":["locality","political"]}],"id":100092},{"city":"Xingning","cn":"兴宁市","results":[{"address_components":[{"long_name":"Xingning","short_name":"Xingning","types":["sublocality_level_1","sublocality","political"]},{"long_name":"Meizhou","short_name":"Meizhou","types":["locality","political"]},{"long_name":"Guangdong","short_name":"Guangdong","types":["administrative_area_level_1","political"]},{"long_name":"China","short_name":"CN","types":["country","political"]}],"formatted_address":"Xingning, Meizhou, Guangdong, China","geometry":{"bounds":{"northeast":{"lat":24.6436566,"lng":116.0389367},"southwest":{"lat":23.849246,"lng":115.4832493}},"location":{"lat":24.13663,"lng":115.73111},"location_type":"APPROXIMATE","viewport":{"northeast":{"lat":24.6436566,"lng":116.0389367},"southwest":{"lat":23.849246,"lng":115.4832493}}},"place_id":"ChIJh0bDYoKEEDQR-glashmqqXQ","types":["sublocality_level_1","sublocality","political"]}],"id":100097},{"city":"Taishan","cn":"台山市","results":[{"address_components":[{"long_name":"Taishan","short_name":"Taishan","types":["sublocality_level_1","sublocality","political"]},{"long_name":"Tai'an","short_name":"Tai'an","types":["locality","political"]},{"long_name":"Shandong","short_name":"Shandong","types":["administrative_area_level_1","political"]},{"long_name":"China","short_name":"CN","types":["country","political"]}],"formatted_address":"Taishan, Tai'an, Shandong, China","geometry":{"bounds":{"northeast":{"lat":36.3467576,"lng":117.333483},"southwest":{"lat":36.0916558,"lng":117.0594156}},"location":{"lat":36.192084,"lng":117.135354},"location_type":"APPROXIMATE","viewport":{"northeast":{"lat":36.3467576,"lng":117.333483},"southwest":{"lat":36.0916558,"lng":117.0594156}}},"place_id":"ChIJJxp0fMeHwTURYsfm-p83GLg","types":["sublocality_level_1","sublocality","political"]},{"address_components":[{"long_name":"Taishan","short_name":"Taishan","types":["sublocality_level_1","sublocality","political"]},{"long_name":"Jiangmen","short_name":"Jiangmen","types":["locality","political"]},{"long_name":"Guangdong","short_name":"Guangdong","types":["administrative_area_level_1","political"]},{"long_name":"China","short_name":"CN","types":["country","political"]}],"formatted_address":"Taishan, Jiangmen, Guangdong, China","geometry":{"bounds":{"northeast":{"lat":22.4414263,"lng":113.0542067},"southwest":{"lat":21.458709,"lng":112.3034654}},"location":{"lat":22.251924,"lng":112.794065},"location_type":"APPROXIMATE","viewport":{"northeast":{"lat":22.4414263,"lng":113.0542067},"southwest":{"lat":21.458709,"lng":112.3034654}}},"place_id":"ChIJX7qp8MnZATQRRpG_W6heVw4","types":["sublocality_level_1","sublocality","political"]}],"id":100095},{"city":"Wuchuan","cn":"吴川市","results":[{"address_components":[{"long_name":"Wuchuan","short_name":"Wuchuan","types":["sublocality_level_1","sublocality","political"]},{"long_name":"Zhanjiang","short_name":"Zhanjiang","types":["locality","political"]},{"long_name":"Guangdong","short_name":"Guangdong","types":["administrative_area_level_1","political"]},{"long_name":"China","short_name":"CN","types":["country","political"]}],"formatted_address":"Wuchuan, Zhanjiang, Guangdong, China","geometry":{"bounds":{"northeast":{"lat":21.6484165,"lng":110.9770233},"southwest":{"lat":21.227383,"lng":110.482701}},"location":{"lat":21.441808,"lng":110.778411},"location_type":"APPROXIMATE","viewport":{"northeast":{"lat":21.6484165,"lng":110.9770233},"southwest":{"lat":21.227383,"lng":110.482701}}},"place_id":"ChIJSViLKOi3rDYR4uqm7v9l4vg","types":["sublocality_level_1","sublocality","political"]}],"id":100096},{"city":"Sihui","cn":"四会市","results":[{"address_components":[{"long_name":"Sihui","short_name":"Sihui","types":["sublocality_level_1","sublocality","political"]},{"long_name":"Zhaoqing","short_name":"Zhaoqing","types":["locality","political"]},{"long_name":"Guangdong","short_name":"Guangdong","types":["administrative_area_level_1","political"]},{"long_name":"China","short_name":"CN","types":["country","political"]}],"formatted_address":"Sihui, Zhaoqing, Guangdong, China","geometry":{"bounds":{"northeast":{"lat":23.6921896,"lng":112.8832803},"southwest":{"lat":23.2003593,"lng":112.4284666}},"location":{"lat":23.326504,"lng":112.733773},"location_type":"APPROXIMATE","viewport":{"northeast":{"lat":23.6921896,"lng":112.8832803},"southwest":{"lat":23.2003593,"lng":112.4284666}}},"place_id":"ChIJaYHgJOqdAjQRHBOCvFzvlxw","types":["sublocality_level_1","sublocality","political"]},{"address_components":[{"long_name":"Sihui","short_name":"Sihui","types":["point_of_interest","establishment"]},{"long_name":"Shilipu","short_name":"Shilipu","types":["neighborhood","political"]},{"long_name":"Chaoyang","short_name":"Chaoyang","types":["sublocality_level_1","sublocality","political"]},{"long_name":"Beijing","short_name":"Beijing","types":["administrative_area_level_1","political"]},{"long_name":"China","short_name":"CN","types":["country","political"]},{"long_name":"100025","short_name":"100025","types":["postal_code"]}],"formatted_address":"Sihui, Shilipu, Chaoyang, China, 100025","geometry":{"location":{"lat":39.908785,"lng":116.495516},"location_type":"APPROXIMATE","viewport":{"northeast":{"lat":39.9101339802915,"lng":116.4968649802915},"southwest":{"lat":39.90743601970851,"lng":116.4941670197085}}},"place_id":"ChIJ0TOxDTSs8TUR7nkb1wJw82w","types":["subway_station","transit_station","point_of_interest","establishment"]}],"id":100094},{"city":"Yingde","cn":"英德市","results":[{"address_components":[{"long_name":"Yingde","short_name":"Yingde","types":["sublocality_level_1","sublocality","political"]},{"long_name":"Qingyuan","short_name":"Qingyuan","types":["locality","political"]},{"long_name":"Guangdong","short_name":"Guangdong","types":["administrative_area_level_1","political"]},{"long_name":"China","short_name":"CN","types":["country","political"]}],"formatted_address":"Yingde, Qingyuan, Guangdong, China","geometry":{"bounds":{"northeast":{"lat":24.5495801,"lng":113.9311346},"southwest":{"lat":23.843139,"lng":112.7604633}},"location":{"lat":24.186062,"lng":113.415045},"location_type":"APPROXIMATE","viewport":{"northeast":{"lat":24.5495801,"lng":113.9311346},"southwest":{"lat":23.843139,"lng":112.7604633}}},"place_id":"ChIJE7Qq3EXgHDQRK3t4buae3o4","types":["sublocality_level_1","sublocality","political"]}],"id":100101},{"city":"Xinyi","cn":"信宜市","results":[{"address_components":[{"long_name":"Xinyi","short_name":"Xinyi","types":["sublocality_level_1","sublocality","political"]},{"long_name":"Xuzhou","short_name":"Xuzhou","types":["locality","political"]},{"long_name":"Jiangsu","short_name":"Jiangsu","types":["administrative_area_level_1","political"]},{"long_name":"China","short_name":"CN","types":["country","political"]}],"formatted_address":"Xinyi, Xuzhou, Jiangsu, China","geometry":{"bounds":{"northeast":{"lat":34.4748565,"lng":118.674072},"southwest":{"lat":34.096666,"lng":118.0356101}},"location":{"lat":34.36958,"lng":118.354537},"location_type":"APPROXIMATE","viewport":{"northeast":{"lat":34.4748565,"lng":118.674072},"southwest":{"lat":34.096666,"lng":118.0356101}}},"place_id":"ChIJIa1IaW-lxzURP41Nz9AOzVA","types":["sublocality_level_1","sublocality","political"]},{"address_components":[{"long_name":"Xinyi","short_name":"Xinyi","types":["sublocality_level_1","sublocality","political"]},{"long_name":"Maoming","short_name":"Maoming","types":["locality","political"]},{"long_name":"Guangdong","short_name":"Guangdong","types":["administrative_area_level_1","political"]},{"long_name":"China","short_name":"CN","types":["country","political"]}],"formatted_address":"Xinyi, Maoming, Guangdong, China","geometry":{"bounds":{"northeast":{"lat":22.7043343,"lng":111.6833625},"southwest":{"lat":22.1849857,"lng":110.6834772}},"location":{"lat":22.354385,"lng":110.947044},"location_type":"APPROXIMATE","viewport":{"northeast":{"lat":22.7043343,"lng":111.6833625},"southwest":{"lat":22.1849857,"lng":110.6834772}}},"place_id":"ChIJLSaUOG8JrDYRlgZ0X5z5GYQ","types":["sublocality_level_1","sublocality","political"]}],"id":100098},{"city":"Yangchun","cn":"阳春市","results":[],"id":100099},{"city":"Yangjiang","cn":"阳江市","results":[{"address_components":[{"long_name":"Yangjiang","short_name":"Yangjiang","types":["locality","political"]},{"long_name":"Guangdong","short_name":"Guangdong","types":["administrative_area_level_1","political"]},{"long_name":"China","short_name":"CN","types":["country","political"]}],"formatted_address":"Yangjiang, Guangdong, China","geometry":{"bounds":{"northeast":{"lat":22.6897312,"lng":112.3700868},"southwest":{"lat":21.4761013,"lng":111.283295}},"location":{"lat":21.857958,"lng":111.982232},"location_type":"APPROXIMATE","viewport":{"northeast":{"lat":22.0215631,"lng":112.2555542},"southwest":{"lat":21.5576774,"lng":111.7337036}}},"place_id":"ChIJzbfdvDhWqjYRZhmcg8YXRF0","types":["locality","political"]}],"id":100100},{"city":"Yunfu","cn":"云浮市","results":[{"address_components":[{"long_name":"Yunfu","short_name":"Yunfu","types":["locality","political"]},{"long_name":"Guangdong","short_name":"Guangdong","types":["administrative_area_level_1","political"]},{"long_name":"China","short_name":"CN","types":["country","political"]}],"formatted_address":"Yunfu, Guangdong, China","geometry":{"bounds":{"northeast":{"lat":23.32836,"lng":112.5217781},"southwest":{"lat":22.3644574,"lng":111.0569881}},"location":{"lat":22.915094,"lng":112.044491},"location_type":"APPROXIMATE","viewport":{"northeast":{"lat":23.0398403,"lng":112.2026825},"southwest":{"lat":22.8026973,"lng":111.8827057}}},"place_id":"ChIJ65w4ZpR2qTYR7mz67KTMFAo","types":["locality","political"]}],"id":100102},{"city":"Zhanjiang","cn":"湛江市","results":[{"address_components":[{"long_name":"Zhanjiang","short_name":"Zhanjiang","types":["locality","political"]},{"long_name":"Guangdong","short_name":"Guangdong","types":["administrative_area_level_1","political"]},{"long_name":"China","short_name":"CN","types":["country","political"]}],"formatted_address":"Zhanjiang, Guangdong, China","geometry":{"bounds":{"northeast":{"lat":21.9553961,"lng":110.9711375},"southwest":{"lat":20.2209735,"lng":109.668994}},"location":{"lat":21.270708,"lng":110.359377},"location_type":"APPROXIMATE","viewport":{"northeast":{"lat":21.4070448,"lng":110.532074},"southwest":{"lat":21.0933967,"lng":110.2079773}}},"place_id":"ChIJv0b4X7rYUjERyjEOwG6c-Ws","types":["locality","political"]}],"id":100103},{"city":"Zhongshan","cn":"中山市","results":[{"address_components":[{"long_name":"Zhongshan","short_name":"Zhongshan","types":["locality","political"]},{"long_name":"Guangdong","short_name":"Guangdong","types":["administrative_area_level_1","political"]},{"long_name":"China","short_name":"CN","types":["country","political"]}],"formatted_address":"Zhongshan, Guangdong, China","geometry":{"bounds":{"northeast":{"lat":22.772602,"lng":113.6273125},"southwest":{"lat":22.2010379,"lng":113.1570141}},"location":{"lat":22.516999,"lng":113.392725},"location_type":"APPROXIMATE","viewport":{"northeast":{"lat":22.6938371,"lng":113.6123657},"southwest":{"lat":22.3284777,"lng":113.1996918}}},"place_id":"ChIJ5dch_DctAjQRyRe9y4rWbLQ","types":["locality","political"]}],"id":100105},{"city":"Zhaoqing","cn":"肇庆市","results":[{"address_components":[{"long_name":"Zhaoqing","short_name":"Zhaoqing","types":["locality","political"]},{"long_name":"Guangdong","short_name":"Guangdong","types":["administrative_area_level_1","political"]},{"long_name":"China","short_name":"CN","types":["country","political"]}],"formatted_address":"Zhaoqing, Guangdong, China","geometry":{"bounds":{"northeast":{"lat":24.3893744,"lng":112.8832803},"southwest":{"lat":22.769758,"lng":111.3619644}},"location":{"lat":23.047192,"lng":112.465091},"location_type":"APPROXIMATE","viewport":{"northeast":{"lat":23.2179583,"lng":112.6599884},"southwest":{"lat":22.8995438,"lng":112.2905731}}},"place_id":"ChIJ1WV0G7JDqDYRRIVvbqDL688","types":["locality","political"]}],"id":100104},{"city":"Zhuhai","cn":"珠海市","results":[{"address_components":[{"long_name":"Zhuhai","short_name":"Zhuhai","types":["locality","political"]},{"long_name":"Guangdong","short_name":"Guangdong","types":["administrative_area_level_1","political"]},{"long_name":"China","short_name":"CN","types":["country","political"]}],"formatted_address":"Zhuhai, Guangdong, China","geometry":{"bounds":{"northeast":{"lat":22.4420406,"lng":114.3250708},"southwest":{"lat":21.8064707,"lng":113.0848882}},"location":{"lat":22.270715,"lng":113.576726},"location_type":"APPROXIMATE","viewport":{"northeast":{"lat":22.446295,"lng":113.6590576},"southwest":{"lat":21.8766149,"lng":113.1248474}}},"place_id":"ChIJta-eZoVoATQRBMbqOlLiMd8","types":["locality","political"]}],"id":100106},{"city":"Beihai","cn":"北海市","results":[{"address_components":[{"long_name":"Beihai","short_name":"Beihai","types":["locality","political"]},{"long_name":"Guangxi","short_name":"Guangxi","types":["administrative_area_level_1","political"]},{"long_name":"China","short_name":"CN","types":["country","political"]}],"formatted_address":"Beihai, Guangxi, China","geometry":{"bounds":{"northeast":{"lat":21.919038,"lng":109.7762527},"southwest":{"lat":20.8998362,"lng":108.8529046}},"location":{"lat":21.481254,"lng":109.119927},"location_type":"APPROXIMATE","viewport":{"northeast":{"lat":21.6608583,"lng":109.3469238},"southwest":{"lat":21.3503389,"lng":108.9472961}}},"place_id":"ChIJ_b5B-LE0TTER0WEXA8n5gDY","types":["locality","political"]}],"id":100108},{"city":"Baise","cn":"百色市","results":[{"address_components":[{"long_name":"Bose","short_name":"Bose","types":["locality","political"]},{"long_name":"Guangxi","short_name":"Guangxi","types":["administrative_area_level_1","political"]},{"long_name":"China","short_name":"CN","types":["country","political"]}],"formatted_address":"Baise, Guangxi, China","geometry":{"bounds":{"northeast":{"lat":25.0993221,"lng":107.8845694},"southwest":{"lat":22.8555449,"lng":104.4501321}},"location":{"lat":23.902333,"lng":106.618201},"location_type":"APPROXIMATE","viewport":{"northeast":{"lat":23.9376092,"lng":106.6978455},"southwest":{"lat":23.8154766,"lng":106.5656662}}},"place_id":"ChIJ8ze83OUrtjYRt05Gbxa-88A","types":["locality","political"]}],"id":100107},{"city":"Beiliu","cn":"北流市","results":[],"id":100109},{"city":"Chongzuo","cn":"崇左市","results":[{"address_components":[{"long_name":"Chongzuo","short_name":"Chongzuo","types":["locality","political"]},{"long_name":"Guangxi","short_name":"Guangxi","types":["administrative_area_level_1","political"]},{"long_name":"China","short_name":"CN","types":["country","political"]}],"formatted_address":"Chongzuo, Guangxi, China","geometry":{"bounds":{"northeast":{"lat":23.3514893,"lng":108.1157074},"southwest":{"lat":21.5936939,"lng":106.5602899}},"location":{"lat":22.376533,"lng":107.364711},